[
  {
    "id": "city-bangkok-asiatique-riverfront",
    "name": "Asiatique Riverfront",
    "category": "nightlife",
    "lat": 13.7049,
    "lon": 100.5046,
    "source": "static",
    "countryCode": "TH",
    "cityId": "bangkok",
    "city": "Bangkok",
    "address": "Charoen Krung Road"
  },
  {
    "id": "city-bangkok-asiatique-the-riverfront",
    "name": "Asiatique The Riverfront",
    "category": "nightlife",
    "lat": 13.77,
    "lon": 100.5039,
    "source": "static",
    "countryCode": "TH",
    "cityId": "bangkok",
    "city": "Bangkok",
    "address": "Sam Sen Road"
  },
  {
    "id": "city-bangkok-bangkok-art-and-culture-centre",
    "name": "Bangkok Art and Culture Centre",
    "category": "museums",
    "lat": 13.7464,
    "lon": 100.5309,
    "source": "static",
    "countryCode": "TH",
    "cityId": "bangkok",
    "city": "Bangkok",
    "address": "Pathum Wan Intersection Skywalk"
  },
  {
    "id": "city-bangkok-benjakitti-park",
    "name": "Benjakitti Park",
    "category": "nature",
    "lat": 13.7274,
    "lon": 100.559,
    "source": "static",
    "countryCode": "TH",
    "cityId": "bangkok",
    "city": "Bangkok",
    "address": "Benjakitti Park, Bangkok"
  },
  {
    "id": "city-bangkok-central-market-bangkok-2",
    "name": "Central Market (Bangkok) 2",
    "category": "food",
    "lat": 13.7807,
    "lon": 100.4816,
    "source": "static",
    "countryCode": "TH",
    "cityId": "bangkok",
    "city": "Bangkok",
    "address": "Central Market (Bangkok) 2, Bangkok"
  },
  {
    "id": "city-bangkok-chao-phraya-riverside-promenade",
    "name": "Chao Phraya Riverside Promenade",
    "category": "nature",
    "lat": 13.7699,
    "lon": 100.5073,
    "source": "static",
    "countryCode": "TH",
    "cityId": "bangkok",
    "city": "Bangkok",
    "address": "Chao Phraya Riverside Promenade, Bangkok"
  },
  {
    "id": "city-bangkok-chao-phraya-riverside-walk",
    "name": "Chao Phraya Riverside Walk",
    "category": "landmarks",
    "lat": 13.745,
    "lon": 100.49,
    "source": "static",
    "countryCode": "TH",
    "cityId": "bangkok",
    "city": "Bangkok",
    "address": "Chao Phraya Riverside Walk, Bangkok"
  },
  {
    "id": "city-bangkok-chatuchak-market",
    "name": "Chatuchak Market",
    "category": "food",
    "lat": 13.7995,
    "lon": 100.551,
    "source": "static",
    "countryCode": "TH",
    "cityId": "bangkok",
    "city": "Bangkok",
    "address": "Chatuchak Market, Bangkok"
  },
  {
    "id": "city-bangkok-chinatown-yaowarat-road",
    "name": "Chinatown (Yaowarat Road)",
    "category": "food",
    "lat": 13.741,
    "lon": 100.509,
    "source": "static",
    "countryCode": "TH",
    "cityId": "bangkok",
    "city": "Bangkok",
    "address": "Chinatown (Yaowarat Road), Bangkok"
  },
  {
    "id": "city-bangkok-city-park-bangkok-4",
    "name": "City Park (Bangkok) 4",
    "category": "nature",
    "lat": 13.7372,
    "lon": 100.4989,
    "source": "static",
    "countryCode": "TH",
    "cityId": "bangkok",
    "city": "Bangkok",
    "address": "City Park (Bangkok) 4, Bangkok"
  },
  {
    "id": "city-bangkok-ekkamai",
    "name": "Ekkamai",
    "category": "nightlife",
    "lat": 13.7192,
    "lon": 100.5851,
    "source": "static",
    "countryCode": "TH",
    "cityId": "bangkok",
    "city": "Bangkok",
    "address": "Ekkamai, Bangkok"
  },
  {
    "id": "city-bangkok-erawan-shrine",
    "name": "Erawan Shrine",
    "category": "landmarks",
    "lat": 13.744,
    "lon": 100.5405,
    "source": "static",
    "countryCode": "TH",
    "cityId": "bangkok",
    "city": "Bangkok",
    "address": "Erawan Shrine, Bangkok"
  },
  {
    "id": "city-bangkok-grand-palace",
    "name": "Grand Palace",
    "category": "landmarks",
    "lat": 13.75,
    "lon": 100.4913,
    "source": "static",
    "countryCode": "TH",
    "cityId": "bangkok",
    "city": "Bangkok",
    "address": "Grand Palace, Bangkok"
  },
  {
    "id": "city-bangkok-historic-cathedral-bangkok-5",
    "name": "Historic Cathedral (Bangkok) 5",
    "category": "landmarks",
    "lat": 13.7485,
    "lon": 100.4885,
    "source": "static",
    "countryCode": "TH",
    "cityId": "bangkok",
    "city": "Bangkok",
    "address": "Historic Cathedral (Bangkok) 5, Bangkok"
  },
  {
    "id": "city-bangkok-iconsiam",
    "name": "Iconsiam",
    "category": "food",
    "lat": 13.7262,
    "lon": 100.5106,
    "source": "static",
    "countryCode": "TH",
    "cityId": "bangkok",
    "city": "Bangkok",
    "address": "Iconsiam, Bangkok"
  },
  {
    "id": "city-bangkok-iconsiam-2",
    "name": "ICONSIAM",
    "category": "food",
    "lat": 13.74,
    "lon": 100.5194,
    "source": "static",
    "countryCode": "TH",
    "cityId": "bangkok",
    "city": "Bangkok",
    "address": "ICONSIAM, Bangkok"
  },
  {
    "id": "city-bangkok-jim-thompson-house",
    "name": "Jim Thompson House",
    "category": "museums",
    "lat": 13.7494,
    "lon": 100.5283,
    "source": "static",
    "countryCode": "TH",
    "cityId": "bangkok",
    "city": "Bangkok",
    "address": "Jim Thompson House, Bangkok"
  },
  {
    "id": "city-bangkok-jodd-fairs-night-market",
    "name": "Jodd Fairs Night Market",
    "category": "food",
    "lat": 13.758,
    "lon": 100.566,
    "source": "static",
    "countryCode": "TH",
    "cityId": "bangkok",
    "city": "Bangkok",
    "address": "Jodd Fairs Night Market, Bangkok"
  },
  {
    "id": "city-bangkok-khao-san-road",
    "name": "Khao San Road",
    "category": "nightlife",
    "lat": 13.7594,
    "lon": 100.497,
    "source": "static",
    "countryCode": "TH",
    "cityId": "bangkok",
    "city": "Bangkok",
    "address": "Khao San Road, Bangkok"
  },
  {
    "id": "city-bangkok-lumphini-park",
    "name": "Lumphini Park",
    "category": "nature",
    "lat": 13.7304,
    "lon": 100.541,
    "source": "static",
    "countryCode": "TH",
    "cityId": "bangkok",
    "city": "Bangkok",
    "address": "Lumphini Park, Bangkok"
  },
  {
    "id": "city-bangkok-lumpini-park",
    "name": "Lumpini Park",
    "category": "nature",
    "lat": 13.7648,
    "lon": 100.5108,
    "source": "static",
    "countryCode": "TH",
    "cityId": "bangkok",
    "city": "Bangkok",
    "address": "Lumpini Park, Bangkok"
  },
  {
    "id": "city-bangkok-mbk-center",
    "name": "MBK Center",
    "category": "food",
    "lat": 13.746,
    "lon": 100.5292,
    "source": "static",
    "countryCode": "TH",
    "cityId": "bangkok",
    "city": "Bangkok",
    "address": "MBK Center, Bangkok"
  },
  {
    "id": "city-bangkok-modern-art-gallery-bangkok-6",
    "name": "Modern Art Gallery (Bangkok) 6",
    "category": "museums",
    "lat": 13.7423,
    "lon": 100.519,
    "source": "static",
    "countryCode": "TH",
    "cityId": "bangkok",
    "city": "Bangkok",
    "address": "Modern Art Gallery (Bangkok) 6, Bangkok"
  },
  {
    "id": "city-bangkok-nightlife-district-bangkok-7",
    "name": "Nightlife District (Bangkok) 7",
    "category": "nightlife",
    "lat": 13.75,
    "lon": 100.4764,
    "source": "static",
    "countryCode": "TH",
    "cityId": "bangkok",
    "city": "Bangkok",
    "address": "Nightlife District (Bangkok) 7, Bangkok"
  },
  {
    "id": "city-bangkok-old-town-bangkok-1",
    "name": "Old Town (Bangkok) 1",
    "category": "landmarks",
    "lat": 13.7343,
    "lon": 100.5035,
    "source": "static",
    "countryCode": "TH",
    "cityId": "bangkok",
    "city": "Bangkok",
    "address": "Old Town (Bangkok) 1, Bangkok"
  },
  {
    "id": "city-bangkok-pak-khlong-talat-flower-market",
    "name": "Pak Khlong Talat Flower Market",
    "category": "food",
    "lat": 13.743,
    "lon": 100.4986,
    "source": "static",
    "countryCode": "TH",
    "cityId": "bangkok",
    "city": "Bangkok",
    "address": "Pak Khlong Talat Flower Market, Bangkok"
  },
  {
    "id": "city-bangkok-pak-khlong-talat-flower-market-2",
    "name": "Pak Khlong Talat (Flower Market)",
    "category": "food",
    "lat": 13.7431,
    "lon": 100.4896,
    "source": "static",
    "countryCode": "TH",
    "cityId": "bangkok",
    "city": "Bangkok",
    "address": "Pak Khlong Talat (Flower Market), Bangkok"
  },
  {
    "id": "city-bangkok-riverside-promenade-bangkok-3",
    "name": "Riverside Promenade (Bangkok) 3",
    "category": "nature",
    "lat": 13.7799,
    "lon": 100.4994,
    "source": "static",
    "countryCode": "TH",
    "cityId": "bangkok",
    "city": "Bangkok",
    "address": "Riverside Promenade (Bangkok) 3, Bangkok"
  },
  {
    "id": "city-bangkok-siam-paragon",
    "name": "Siam Paragon",
    "category": "food",
    "lat": 13.7463,
    "lon": 100.5347,
    "source": "static",
    "countryCode": "TH",
    "cityId": "bangkok",
    "city": "Bangkok",
    "address": "Siam Paragon, Bangkok"
  },
  {
    "id": "city-bangkok-silom-patpong",
    "name": "Silom / Patpong",
    "category": "nightlife",
    "lat": 13.7276,
    "lon": 100.5311,
    "source": "static",
    "countryCode": "TH",
    "cityId": "bangkok",
    "city": "Bangkok",
    "address": "Silom / Patpong, Bangkok"
  },
  {
    "id": "city-bangkok-sukhumvit-soi-11",
    "name": "Sukhumvit Soi 11",
    "category": "nightlife",
    "lat": 13.7442,
    "lon": 100.5566,
    "source": "static",
    "countryCode": "TH",
    "cityId": "bangkok",
    "city": "Bangkok",
    "address": "Sukhumvit Soi 11, Bangkok"
  },
  {
    "id": "city-bangkok-talad-rot-fai-night-market",
    "name": "Talad Rot Fai Night Market",
    "category": "nightlife",
    "lat": 13.7709,
    "lon": 100.4946,
    "source": "static",
    "countryCode": "TH",
    "cityId": "bangkok",
    "city": "Bangkok",
    "address": "Talad Rot Fai Night Market, Bangkok"
  },
  {
    "id": "city-bangkok-terminal-21",
    "name": "Terminal 21",
    "category": "food",
    "lat": 13.7377,
    "lon": 100.56,
    "source": "static",
    "countryCode": "TH",
    "cityId": "bangkok",
    "city": "Bangkok",
    "address": "Terminal 21, Bangkok"
  },
  {
    "id": "city-bangkok-terminal-21-asok",
    "name": "Terminal 21 Asok",
    "category": "other",
    "lat": 13.7449,
    "lon": 100.5122,
    "source": "static",
    "countryCode": "TH",
    "cityId": "bangkok",
    "city": "Bangkok",
    "address": "Terminal 21 Asok, Bangkok"
  },
  {
    "id": "city-bangkok-thonglor",
    "name": "Thonglor",
    "category": "nightlife",
    "lat": 13.7308,
    "lon": 100.5696,
    "source": "static",
    "countryCode": "TH",
    "cityId": "bangkok",
    "city": "Bangkok",
    "address": "Thonglor, Bangkok"
  },
  {
    "id": "city-bangkok-wat-arun",
    "name": "Wat Arun",
    "category": "landmarks",
    "lat": 13.7437,
    "lon": 100.488,
    "source": "static",
    "countryCode": "TH",
    "cityId": "bangkok",
    "city": "Bangkok",
    "address": "Wat Arun, Bangkok"
  },
  {
    "id": "city-bangkok-wat-pho",
    "name": "Wat Pho",
    "category": "landmarks",
    "lat": 13.7466,
    "lon": 100.493,
    "source": "static",
    "countryCode": "TH",
    "cityId": "bangkok",
    "city": "Bangkok",
    "address": "Wat Pho, Bangkok"
  },
  {
    "id": "city-bangkok-wat-saket-golden-mount",
    "name": "Wat Saket (Golden Mount)",
    "category": "landmarks",
    "lat": 13.7536,
    "lon": 100.5064,
    "source": "static",
    "countryCode": "TH",
    "cityId": "bangkok",
    "city": "Bangkok",
    "address": "Wat Saket (Golden Mount), Bangkok"
  },
  {
    "id": "city-bangkok-wat-traimit-golden-buddha",
    "name": "Wat Traimit (Golden Buddha)",
    "category": "museums",
    "lat": 13.7384,
    "lon": 100.5132,
    "source": "static",
    "countryCode": "TH",
    "cityId": "bangkok",
    "city": "Bangkok",
    "address": "Wat Traimit (Golden Buddha), Bangkok"
  },
  {
    "id": "city-bangkok-yaowarat-chinatown",
    "name": "Yaowarat (Chinatown)",
    "category": "food",
    "lat": 13.758,
    "lon": 100.5086,
    "source": "static",
    "countryCode": "TH",
    "cityId": "bangkok",
    "city": "Bangkok",
    "address": "Yaowarat (Chinatown), Bangkok"
  }
]
