[
  {
    "id": "city-london-big-ben",
    "name": "Big Ben",
    "category": "landmarks",
    "lat": 51.5007,
    "lon": -0.1246,
    "source": "static",
    "countryCode": "GB",
    "cityId": "london",
    "city": "London",
    "address": "Bridge Street"
  },
  {
    "id": "city-london-borough-market",
    "name": "Borough Market",
    "category": "food",
    "lat": 51.5055,
    "lon": -0.0912,
    "source": "static",
    "countryCode": "GB",
    "cityId": "london",
    "city": "London",
    "address": "Green Dragon Court"
  },
  {
    "id": "city-london-brick-lane",
    "name": "Brick Lane",
    "category": "food",
    "lat": 51.5219,
    "lon": -0.0716,
    "source": "static",
    "countryCode": "GB",
    "cityId": "london",
    "city": "London",
    "address": "152 Brick Lane"
  },
  {
    "id": "city-london-british-museum",
    "name": "British Museum",
    "category": "museums",
    "lat": 51.5194,
    "lon": -0.127,
    "source": "static",
    "countryCode": "GB",
    "cityId": "london",
    "city": "London",
    "address": "British Museum, London"
  },
  {
    "id": "city-london-buckingham-palace",
    "name": "Buckingham Palace",
    "category": "landmarks",
    "lat": 51.5014,
    "lon": -0.1419,
    "source": "static",
    "countryCode": "GB",
    "cityId": "london",
    "city": "London",
    "address": "Buckingham Palace, London"
  },
  {
    "id": "city-london-camden-market",
    "name": "Camden Market",
    "category": "food",
    "lat": 51.5413,
    "lon": -0.146,
    "source": "static",
    "countryCode": "GB",
    "cityId": "london",
    "city": "London",
    "address": "Camden Market, London"
  },
  {
    "id": "city-london-central-market-london-12",
    "name": "Central Market (London) 12",
    "category": "food",
    "lat": 51.5122,
    "lon": -0.1401,
    "source": "static",
    "countryCode": "GB",
    "cityId": "london",
    "city": "London",
    "address": "Central Market (London) 12, London"
  },
  {
    "id": "city-london-central-market-london-2",
    "name": "Central Market (London) 2",
    "category": "food",
    "lat": 51.502,
    "lon": -0.1357,
    "source": "static",
    "countryCode": "GB",
    "cityId": "london",
    "city": "London",
    "address": "Central Market (London) 2, London"
  },
  {
    "id": "city-london-city-park-london-4",
    "name": "City Park (London) 4",
    "category": "nature",
    "lat": 51.4878,
    "lon": -0.1641,
    "source": "static",
    "countryCode": "GB",
    "cityId": "london",
    "city": "London",
    "address": "City Park (London) 4, London"
  },
  {
    "id": "city-london-covent-garden",
    "name": "Covent Garden",
    "category": "food",
    "lat": 51.5129,
    "lon": -0.1247,
    "source": "static",
    "countryCode": "GB",
    "cityId": "london",
    "city": "London",
    "address": "Covent Garden, London"
  },
  {
    "id": "city-london-fabric",
    "name": "Fabric",
    "category": "nightlife",
    "lat": 51.5209,
    "lon": -0.1042,
    "source": "static",
    "countryCode": "GB",
    "cityId": "london",
    "city": "London",
    "address": "Fabric, London"
  },
  {
    "id": "city-london-greenwich-park",
    "name": "Greenwich Park",
    "category": "nature",
    "lat": 51.4769,
    "lon": 0.0005,
    "source": "static",
    "countryCode": "GB",
    "cityId": "london",
    "city": "London",
    "address": "Greenwich Park, London"
  },
  {
    "id": "city-london-historic-cathedral-london-5",
    "name": "Historic Cathedral (London) 5",
    "category": "landmarks",
    "lat": 51.5138,
    "lon": -0.1489,
    "source": "static",
    "countryCode": "GB",
    "cityId": "london",
    "city": "London",
    "address": "Historic Cathedral (London) 5, London"
  },
  {
    "id": "city-london-hyde-park",
    "name": "Hyde Park",
    "category": "nature",
    "lat": 51.5073,
    "lon": -0.1657,
    "source": "static",
    "countryCode": "GB",
    "cityId": "london",
    "city": "London",
    "address": "Hyde Park, London"
  },
  {
    "id": "city-london-local-food-street-london-8",
    "name": "Local Food Street (London) 8",
    "category": "food",
    "lat": 51.4969,
    "lon": -0.1004,
    "source": "static",
    "countryCode": "GB",
    "cityId": "london",
    "city": "London",
    "address": "Local Food Street (London) 8, London"
  },
  {
    "id": "city-london-london-eye",
    "name": "London Eye",
    "category": "landmarks",
    "lat": 51.5033,
    "lon": -0.1195,
    "source": "static",
    "countryCode": "GB",
    "cityId": "london",
    "city": "London",
    "address": "London Eye, London"
  },
  {
    "id": "city-london-main-square-london-9",
    "name": "Main Square (London) 9",
    "category": "landmarks",
    "lat": 51.5193,
    "lon": -0.1163,
    "source": "static",
    "countryCode": "GB",
    "cityId": "london",
    "city": "London",
    "address": "Main Square (London) 9, London"
  },
  {
    "id": "city-london-ministry-of-sound",
    "name": "Ministry of Sound",
    "category": "nightlife",
    "lat": 51.4987,
    "lon": -0.0997,
    "source": "static",
    "countryCode": "GB",
    "cityId": "london",
    "city": "London",
    "address": "Ministry of Sound, London"
  },
  {
    "id": "city-london-modern-art-gallery-london-6",
    "name": "Modern Art Gallery (London) 6",
    "category": "museums",
    "lat": 51.5086,
    "lon": -0.1098,
    "source": "static",
    "countryCode": "GB",
    "cityId": "london",
    "city": "London",
    "address": "Modern Art Gallery (London) 6, London"
  },
  {
    "id": "city-london-natural-history-museum",
    "name": "Natural History Museum",
    "category": "museums",
    "lat": 51.4967,
    "lon": -0.1764,
    "source": "static",
    "countryCode": "GB",
    "cityId": "london",
    "city": "London",
    "address": "Natural History Museum, London"
  },
  {
    "id": "city-london-nightlife-district-london-7",
    "name": "Nightlife District (London) 7",
    "category": "nightlife",
    "lat": 51.4902,
    "lon": -0.1548,
    "source": "static",
    "countryCode": "GB",
    "cityId": "london",
    "city": "London",
    "address": "Nightlife District (London) 7, London"
  },
  {
    "id": "city-london-notting-hill",
    "name": "Notting Hill",
    "category": "food",
    "lat": 51.509,
    "lon": -0.205,
    "source": "static",
    "countryCode": "GB",
    "cityId": "london",
    "city": "London",
    "address": "Notting Hill, London"
  },
  {
    "id": "city-london-old-town-london-1",
    "name": "Old Town (London) 1",
    "category": "landmarks",
    "lat": 51.4996,
    "lon": -0.1601,
    "source": "static",
    "countryCode": "GB",
    "cityId": "london",
    "city": "London",
    "address": "Old Town (London) 1, London"
  },
  {
    "id": "city-london-old-town-london-11",
    "name": "Old Town (London) 11",
    "category": "landmarks",
    "lat": 51.5113,
    "lon": -0.1459,
    "source": "static",
    "countryCode": "GB",
    "cityId": "london",
    "city": "London",
    "address": "Old Town (London) 11, London"
  },
  {
    "id": "city-london-regent-s-park",
    "name": "Regent's Park",
    "category": "nature",
    "lat": 51.5032,
    "lon": -0.1316,
    "source": "static",
    "countryCode": "GB",
    "cityId": "london",
    "city": "London",
    "address": "Regent's Park, London"
  },
  {
    "id": "city-london-riverside-promenade-london-13",
    "name": "Riverside Promenade (London) 13",
    "category": "nature",
    "lat": 51.5122,
    "lon": -0.1588,
    "source": "static",
    "countryCode": "GB",
    "cityId": "london",
    "city": "London",
    "address": "Riverside Promenade (London) 13, London"
  },
  {
    "id": "city-london-riverside-promenade-london-3",
    "name": "Riverside Promenade (London) 3",
    "category": "nature",
    "lat": 51.5208,
    "lon": -0.1229,
    "source": "static",
    "countryCode": "GB",
    "cityId": "london",
    "city": "London",
    "address": "Riverside Promenade (London) 3, London"
  },
  {
    "id": "city-london-shoreditch",
    "name": "Shoreditch",
    "category": "nightlife",
    "lat": 51.525,
    "lon": -0.074,
    "source": "static",
    "countryCode": "GB",
    "cityId": "london",
    "city": "London",
    "address": "Shoreditch, London"
  },
  {
    "id": "city-london-sky-garden",
    "name": "Sky Garden",
    "category": "landmarks",
    "lat": 51.5116,
    "lon": -0.0837,
    "source": "static",
    "countryCode": "GB",
    "cityId": "london",
    "city": "London",
    "address": "Sky Garden, London"
  },
  {
    "id": "city-london-soho",
    "name": "Soho",
    "category": "nightlife",
    "lat": 51.5137,
    "lon": -0.1365,
    "source": "static",
    "countryCode": "GB",
    "cityId": "london",
    "city": "London",
    "address": "Soho, London"
  },
  {
    "id": "city-london-south-bank-walk",
    "name": "South Bank Walk",
    "category": "landmarks",
    "lat": 51.5075,
    "lon": -0.116,
    "source": "static",
    "countryCode": "GB",
    "cityId": "london",
    "city": "London",
    "address": "South Bank Walk, London"
  },
  {
    "id": "city-london-st-paul-s-cathedral",
    "name": "St Paul's Cathedral",
    "category": "landmarks",
    "lat": 51.5138,
    "lon": -0.0984,
    "source": "static",
    "countryCode": "GB",
    "cityId": "london",
    "city": "London",
    "address": "St Paul's Cathedral, London"
  },
  {
    "id": "city-london-tate-modern",
    "name": "Tate Modern",
    "category": "museums",
    "lat": 51.5076,
    "lon": -0.0994,
    "source": "static",
    "countryCode": "GB",
    "cityId": "london",
    "city": "London",
    "address": "Tate Modern, London"
  },
  {
    "id": "city-london-the-shard-viewpoint",
    "name": "The Shard Viewpoint",
    "category": "landmarks",
    "lat": 51.5045,
    "lon": -0.0865,
    "source": "static",
    "countryCode": "GB",
    "cityId": "london",
    "city": "London",
    "address": "The Shard Viewpoint, London"
  },
  {
    "id": "city-london-tower-bridge",
    "name": "Tower Bridge",
    "category": "landmarks",
    "lat": 51.5206,
    "lon": -0.1064,
    "source": "static",
    "countryCode": "GB",
    "cityId": "london",
    "city": "London",
    "address": "Tower Bridge, London"
  },
  {
    "id": "city-london-tower-of-london",
    "name": "Tower of London",
    "category": "landmarks",
    "lat": 51.5081,
    "lon": -0.0759,
    "source": "static",
    "countryCode": "GB",
    "cityId": "london",
    "city": "London",
    "address": "Tower of London, London"
  },
  {
    "id": "city-london-trafalgar-square",
    "name": "Trafalgar Square",
    "category": "landmarks",
    "lat": 51.508,
    "lon": -0.1281,
    "source": "static",
    "countryCode": "GB",
    "cityId": "london",
    "city": "London",
    "address": "Trafalgar Square, London"
  },
  {
    "id": "city-london-victoria-and-albert-museum",
    "name": "Victoria and Albert Museum",
    "category": "museums",
    "lat": 51.4966,
    "lon": -0.1722,
    "source": "static",
    "countryCode": "GB",
    "cityId": "london",
    "city": "London",
    "address": "Victoria and Albert Museum, London"
  },
  {
    "id": "city-london-waterfront-london-10",
    "name": "Waterfront (London) 10",
    "category": "nature",
    "lat": 51.5056,
    "lon": -0.1526,
    "source": "static",
    "countryCode": "GB",
    "cityId": "london",
    "city": "London",
    "address": "Waterfront (London) 10, London"
  },
  {
    "id": "city-london-westminster-abbey",
    "name": "Westminster Abbey",
    "category": "landmarks",
    "lat": 51.4993,
    "lon": -0.1273,
    "source": "static",
    "countryCode": "GB",
    "cityId": "london",
    "city": "London",
    "address": "Westminster Abbey, London"
  }
]
