[
  {
    "id": "country-fr-eiffel-tower",
    "name": "Eiffel Tower",
    "category": "landmarks",
    "lat": 48.8584,
    "lon": 2.2945,
    "source": "static",
    "countryCode": "FR",
    "city": "Paris",
    "address": "Champ de Mars, 5 Av. Anatole France"
  },
  {
    "id": "country-fr-louvre-museum",
    "name": "Louvre Museum",
    "category": "museums",
    "lat": 48.8606,
    "lon": 2.3376,
    "source": "static",
    "countryCode": "FR",
    "city": "Paris",
    "address": "99 Rue de Rivoli"
  },
  {
    "id": "country-fr-mont-saint-michel",
    "name": "Mont Saint-Michel",
    "category": "landmarks",
    "lat": 48.6361,
    "lon": -1.5115,
    "source": "static",
    "countryCode": "FR",
    "city": "Le Mont-Saint-Michel",
    "address": "L'Abbaye (au sommet du village)"
  },
  {
    "id": "country-fr-palace-of-versailles",
    "name": "Palace of Versailles",
    "category": "landmarks",
    "lat": 48.8049,
    "lon": 2.1204,
    "source": "static",
    "countryCode": "FR",
    "city": "Versailles",
    "address": "Place d'Armes"
  },
  {
    "id": "country-fr-promenade-des-anglais",
    "name": "Promenade des Anglais",
    "category": "nature",
    "lat": 43.6955,
    "lon": 7.265,
    "source": "static",
    "countryCode": "FR",
    "city": "Nice",
    "address": "Promenade des Anglais"
  },
  {
    "id": "country-fr-vieux-lyon",
    "name": "Vieux Lyon",
    "category": "landmarks",
    "lat": 45.7633,
    "lon": 4.8271,
    "source": "static",
    "countryCode": "FR",
    "city": "Lyon",
    "address": "1 Place Saint-Jean"
  },
  {
    "id": "country-fr-strasbourg-cathedral",
    "name": "Strasbourg Cathedral",
    "category": "landmarks",
    "lat": 48.5818,
    "lon": 7.7509,
    "source": "static",
    "countryCode": "FR",
    "city": "Strasbourg",
    "address": "Place de la Cathédrale"
  },
  {
    "id": "country-fr-bordeaux-waterfront",
    "name": "Bordeaux Waterfront",
    "category": "food",
    "lat": 44.8412,
    "lon": -0.5706,
    "source": "static",
    "countryCode": "FR",
    "city": "Bordeaux",
    "address": "Quai des Chartrons"
  },
  {
    "id": "country-fr-annecy-old-town",
    "name": "Annecy Old Town",
    "category": "landmarks",
    "lat": 45.899,
    "lon": 6.1286,
    "source": "static",
    "countryCode": "FR",
    "city": "Annecy",
    "address": "74000 Annecy"
  },
  {
    "id": "country-fr-dune-of-pilat",
    "name": "Dune of Pilat",
    "category": "nature",
    "lat": 44.5893,
    "lon": -1.2133,
    "source": "static",
    "countryCode": "FR",
    "city": "La Teste-de-Buch",
    "address": "Route de Biscarrosse (RD 218)"
  },
  {
    "id": "country-fr-notre-dame-cathedral",
    "name": "Notre-Dame Cathedral",
    "category": "landmarks",
    "lat": 48.853,
    "lon": 2.3499,
    "source": "static",
    "countryCode": "FR",
    "city": "Paris",
    "address": "6 Parvis Notre-Dame – Pl. Jean-Paul II"
  },
  {
    "id": "country-fr-sacre-coeur",
    "name": "Sacré-Cœur Basilica",
    "category": "landmarks",
    "lat": 48.8867,
    "lon": 2.3431,
    "source": "static",
    "countryCode": "FR",
    "city": "Paris",
    "address": "35 Rue du Chevalier de la Barre"
  },
  {
    "id": "country-fr-arc-de-triomphe",
    "name": "Arc de Triomphe",
    "category": "landmarks",
    "lat": 48.8738,
    "lon": 2.295,
    "source": "static",
    "countryCode": "FR",
    "city": "Paris",
    "address": "Place Charles de Gaulle"
  },
  {
    "id": "country-fr-musee-d-orsay",
    "name": "Musée d'Orsay",
    "category": "museums",
    "lat": 48.8601,
    "lon": 2.3265,
    "source": "static",
    "countryCode": "FR",
    "city": "Paris",
    "address": "1 Rue de la Légion d'Honneur"
  },
  {
    "id": "country-fr-lavender-fields-provence",
    "name": "Lavender Fields Provence",
    "category": "nature",
    "lat": 43.9359,
    "lon": 5.8081,
    "source": "static",
    "countryCode": "FR",
    "city": "Valensole",
    "address": "RD8 (Plateau de Valensole)"
  },
  {
    "id": "country-fr-pigalle-district",
    "name": "Pigalle District",
    "category": "nightlife",
    "lat": 48.8829,
    "lon": 2.3323,
    "source": "static",
    "countryCode": "FR",
    "city": "Paris",
    "address": "Place Pigalle"
  },
  {
    "id": "country-fr-marais-nightlife",
    "name": "Marais Nightlife",
    "category": "nightlife",
    "lat": 48.8595,
    "lon": 2.3635,
    "source": "static",
    "countryCode": "FR",
    "city": "Paris",
    "address": "Place des Vosges"
  },
  {
    "id": "country-fr-bastille-clubs",
    "name": "Pachamama",
    "category": "nightlife",
    "lat": 48.8528,
    "lon": 2.3691,
    "source": "static",
    "countryCode": "FR",
    "city": "Paris",
    "address": "46-48 Rue du Faubourg Saint-Antoine"
  },
  {
    "id": "country-fr-canal-saint-martin",
    "name": "Canal Saint-Martin",
    "category": "nightlife",
    "lat": 48.8713,
    "lon": 2.364,
    "source": "static",
    "countryCode": "FR",
    "city": "Paris",
    "address": "Quai de Jemmapes"
  },
  {
    "id": "country-fr-pont-du-gard",
    "name": "Pont du Gard",
    "category": "landmarks",
    "lat": 43.9475,
    "lon": 4.535,
    "source": "static",
    "countryCode": "FR",
    "city": "Vers-Pont-du-Gard",
    "address": "400 Route du Pont du Gard"
  },
  {
    "id": "country-fr-loire-valley-chateaux",
    "name": "Loire Valley Châteaux",
    "category": "landmarks",
    "lat": 47.325,
    "lon": 0.715,
    "source": "static",
    "countryCode": "FR",
    "city": "Tours",
    "address": "78-82 Rue de Bernard Palissy"
  },
  {
    "id": "country-fr-chamonix-mont-blanc",
    "name": "Chamonix (Mont-Blanc)",
    "category": "nature",
    "lat": 45.9237,
    "lon": 6.8694,
    "source": "static",
    "countryCode": "FR",
    "city": "Chamonix-Mont-Blanc",
    "address": "85 Place du Triangle de l'Amitié"
  },
  {
    "id": "country-fr-calanques-national-park",
    "name": "Calanques National Park",
    "category": "nature",
    "lat": 43.214,
    "lon": 5.435,
    "source": "static",
    "countryCode": "FR",
    "city": "Marseille",
    "address": "141 Avenue du Prado, Bâtiment A"
  },
  {
    "id": "country-fr-reims-cathedral-champagne",
    "name": "Reims Cathedral (Champagne)",
    "category": "landmarks",
    "lat": 49.253,
    "lon": 4.034,
    "source": "static",
    "countryCode": "FR",
    "city": "Reims",
    "address": "Place du Cardinal Luçon"
  },
  {
    "id": "country-fr-carcassonne-citadel",
    "name": "Carcassonne Citadel",
    "category": "landmarks",
    "lat": 43.2067,
    "lon": 2.363,
    "source": "static",
    "countryCode": "FR",
    "city": "Carcassonne",
    "address": "1 Rue Viollet-le-Duc"
  },
  {
    "id": "country-fr-paris-canal-saint-martin",
    "name": "Canal Saint-Martin",
    "category": "landmarks",
    "lat": 48.8722,
    "lon": 2.3642,
    "source": "static",
    "countryCode": "FR",
    "city": "Paris",
    "address": "Canal Saint-Martin, Paris"
  },
  {
    "id": "country-fr-paris-central-market-paris-2",
    "name": "Central Market (Paris) 2",
    "category": "food",
    "lat": 48.874,
    "lon": 2.3347,
    "source": "static",
    "countryCode": "FR",
    "city": "Paris",
    "address": "Central Market (Paris) 2, Paris"
  },
  {
    "id": "country-fr-paris-centre-pompidou",
    "name": "Centre Pompidou",
    "category": "museums",
    "lat": 48.8606,
    "lon": 2.3522,
    "source": "static",
    "countryCode": "FR",
    "city": "Paris",
    "address": "Centre Pompidou, Paris"
  },
  {
    "id": "country-fr-paris-champs-elysees",
    "name": "Champs-Elysees",
    "category": "landmarks",
    "lat": 48.8698,
    "lon": 2.3073,
    "source": "static",
    "countryCode": "FR",
    "city": "Paris",
    "address": "Champs-Elysees, Paris"
  },
  {
    "id": "country-fr-paris-city-park-paris-4",
    "name": "City Park (Paris) 4",
    "category": "nature",
    "lat": 48.8463,
    "lon": 2.3209,
    "source": "static",
    "countryCode": "FR",
    "city": "Paris",
    "address": "City Park (Paris) 4, Paris"
  },
  {
    "id": "country-fr-paris-historic-cathedral-paris-5",
    "name": "Historic Cathedral (Paris) 5",
    "category": "landmarks",
    "lat": 48.874,
    "lon": 2.3325,
    "source": "static",
    "countryCode": "FR",
    "city": "Paris",
    "address": "Historic Cathedral (Paris) 5, Paris"
  },
  {
    "id": "country-fr-paris-latin-quarter",
    "name": "Latin Quarter",
    "category": "food",
    "lat": 48.8424,
    "lon": 2.3446,
    "source": "static",
    "countryCode": "FR",
    "city": "Paris",
    "address": "Latin Quarter, Paris"
  },
  {
    "id": "country-fr-paris-latin-quarter-nightlife",
    "name": "Latin Quarter Nightlife",
    "category": "nightlife",
    "lat": 48.8456,
    "lon": 2.3499,
    "source": "static",
    "countryCode": "FR",
    "city": "Paris",
    "address": "Latin Quarter Nightlife, Paris"
  },
  {
    "id": "country-fr-paris-le-marais",
    "name": "Le Marais",
    "category": "food",
    "lat": 48.8589,
    "lon": 2.3622,
    "source": "static",
    "countryCode": "FR",
    "city": "Paris",
    "address": "Le Marais, Paris"
  },
  {
    "id": "country-fr-paris-local-food-street-paris-8",
    "name": "Local Food Street (Paris) 8",
    "category": "food",
    "lat": 48.8803,
    "lon": 2.3781,
    "source": "static",
    "countryCode": "FR",
    "city": "Paris",
    "address": "Local Food Street (Paris) 8, Paris"
  },
  {
    "id": "country-fr-paris-luxembourg-gardens",
    "name": "Luxembourg Gardens",
    "category": "nature",
    "lat": 48.8462,
    "lon": 2.3372,
    "source": "static",
    "countryCode": "FR",
    "city": "Paris",
    "address": "Luxembourg Gardens, Paris"
  },
  {
    "id": "country-fr-paris-marche-des-enfants-rouges",
    "name": "Marché des Enfants Rouges",
    "category": "food",
    "lat": 48.8622,
    "lon": 2.3615,
    "source": "static",
    "countryCode": "FR",
    "city": "Paris",
    "address": "Marché des Enfants Rouges, Paris"
  },
  {
    "id": "country-fr-paris-modern-art-gallery-paris-6",
    "name": "Modern Art Gallery (Paris) 6",
    "category": "museums",
    "lat": 48.8739,
    "lon": 2.34,
    "source": "static",
    "countryCode": "FR",
    "city": "Paris",
    "address": "Modern Art Gallery (Paris) 6, Paris"
  },
  {
    "id": "country-fr-paris-montparnasse-tower-viewpoint",
    "name": "Montparnasse Tower Viewpoint",
    "category": "landmarks",
    "lat": 48.8434,
    "lon": 2.376,
    "source": "static",
    "countryCode": "FR",
    "city": "Paris",
    "address": "Montparnasse Tower Viewpoint, Paris"
  },
  {
    "id": "country-fr-paris-moulin-rouge",
    "name": "Moulin Rouge",
    "category": "nightlife",
    "lat": 48.8844,
    "lon": 2.3826,
    "source": "static",
    "countryCode": "FR",
    "city": "Paris",
    "address": "Moulin Rouge, Paris"
  },
  {
    "id": "country-fr-paris-nightlife-district-paris-7",
    "name": "Nightlife District (Paris) 7",
    "category": "nightlife",
    "lat": 48.8754,
    "lon": 2.3871,
    "source": "static",
    "countryCode": "FR",
    "city": "Paris",
    "address": "Nightlife District (Paris) 7, Paris"
  },
  {
    "id": "country-fr-paris-oberkampf",
    "name": "Oberkampf",
    "category": "nightlife",
    "lat": 48.8689,
    "lon": 2.3394,
    "source": "static",
    "countryCode": "FR",
    "city": "Paris",
    "address": "Oberkampf, Paris"
  },
  {
    "id": "country-fr-paris-old-town-paris-1",
    "name": "Old Town (Paris) 1",
    "category": "landmarks",
    "lat": 48.835,
    "lon": 2.3293,
    "source": "static",
    "countryCode": "FR",
    "city": "Paris",
    "address": "Old Town (Paris) 1, Paris"
  },
  {
    "id": "country-fr-paris-palais-garnier",
    "name": "Palais Garnier",
    "category": "landmarks",
    "lat": 48.8719,
    "lon": 2.3316,
    "source": "static",
    "countryCode": "FR",
    "city": "Paris",
    "address": "Palais Garnier, Paris"
  },
  {
    "id": "country-fr-paris-pere-lachaise-cemetery",
    "name": "Père Lachaise Cemetery",
    "category": "landmarks",
    "lat": 48.8614,
    "lon": 2.3933,
    "source": "static",
    "countryCode": "FR",
    "city": "Paris",
    "address": "Père Lachaise Cemetery, Paris"
  },
  {
    "id": "country-fr-paris-place-de-la-concorde",
    "name": "Place de la Concorde",
    "category": "landmarks",
    "lat": 48.8412,
    "lon": 2.3649,
    "source": "static",
    "countryCode": "FR",
    "city": "Paris",
    "address": "Place de la Concorde, Paris"
  },
  {
    "id": "country-fr-paris-riverside-promenade-paris-3",
    "name": "Riverside Promenade (Paris) 3",
    "category": "nature",
    "lat": 48.8616,
    "lon": 2.3834,
    "source": "static",
    "countryCode": "FR",
    "city": "Paris",
    "address": "Riverside Promenade (Paris) 3, Paris"
  },
  {
    "id": "country-fr-paris-rodin-museum",
    "name": "Rodin Museum",
    "category": "museums",
    "lat": 48.8556,
    "lon": 2.3155,
    "source": "static",
    "countryCode": "FR",
    "city": "Paris",
    "address": "Rodin Museum, Paris"
  },
  {
    "id": "country-fr-paris-ru-cler",
    "name": "Rue Cler",
    "category": "food",
    "lat": 48.8702,
    "lon": 2.3473,
    "source": "static",
    "countryCode": "FR",
    "city": "Paris",
    "address": "Rue Cler, Paris"
  },
  {
    "id": "country-fr-paris-ru-montorguil",
    "name": "Rue Montorgueil",
    "category": "food",
    "lat": 48.864,
    "lon": 2.347,
    "source": "static",
    "countryCode": "FR",
    "city": "Paris",
    "address": "Rue Montorgueil, Paris"
  },
  {
    "id": "country-fr-paris-saint-germain-des-pres",
    "name": "Saint-Germain-des-Prés",
    "category": "food",
    "lat": 48.8534,
    "lon": 2.333,
    "source": "static",
    "countryCode": "FR",
    "city": "Paris",
    "address": "Saint-Germain-des-Prés, Paris"
  },
  {
    "id": "country-fr-paris-sainte-chapelle",
    "name": "Sainte-Chapelle",
    "category": "museums",
    "lat": 48.8554,
    "lon": 2.345,
    "source": "static",
    "countryCode": "FR",
    "city": "Paris",
    "address": "Sainte-Chapelle, Paris"
  },
  {
    "id": "country-fr-paris-seine-river-walk",
    "name": "Seine River Walk",
    "category": "nature",
    "lat": 48.857,
    "lon": 2.342,
    "source": "static",
    "countryCode": "FR",
    "city": "Paris",
    "address": "Seine River Walk, Paris"
  },
  {
    "id": "country-fr-paris-trocadero",
    "name": "Trocadero",
    "category": "landmarks",
    "lat": 48.8629,
    "lon": 2.287,
    "source": "static",
    "countryCode": "FR",
    "city": "Paris",
    "address": "Trocadero, Paris"
  },
  {
    "id": "country-fr-castellane-verdon-gorge",
    "name": "Verdon Gorge",
    "category": "nature",
    "lat": 43.7496562,
    "lon": 6.3285616,
    "source": "static",
    "countryCode": "FR",
    "city": "Castellane",
    "address": "Route de la Maline"
  }
]
