[
  {
    "id": "country-hr-dubrovnik-old-town",
    "name": "Dubrovnik Old Town",
    "category": "landmarks",
    "lat": 42.6409,
    "lon": 18.1086,
    "source": "static",
    "countryCode": "HR",
    "city": "Dubrovnik",
    "address": "Nikole Božidarevića"
  },
  {
    "id": "country-hr-city-walls-of-dubrovnik",
    "name": "City Walls of Dubrovnik",
    "category": "landmarks",
    "lat": 42.6412,
    "lon": 18.109,
    "source": "static",
    "countryCode": "HR",
    "city": "Dubrovnik",
    "address": "20 Između Polača"
  },
  {
    "id": "country-hr-split-diocletians-palace",
    "name": "Split Diocletian's Palace",
    "category": "landmarks",
    "lat": 43.5081,
    "lon": 16.4402,
    "source": "static",
    "countryCode": "HR",
    "city": "Split",
    "address": "Peristil"
  },
  {
    "id": "country-hr-hvar-town",
    "name": "Hvar Town",
    "category": "landmarks",
    "lat": 43.1729,
    "lon": 16.4425,
    "source": "static",
    "countryCode": "HR",
    "city": "Unknown",
    "address": "Hvar Town, Unknown"
  },
  {
    "id": "country-hr-zagreb-upper-town",
    "name": "Zagreb Upper Town",
    "category": "landmarks",
    "lat": 45.815,
    "lon": 15.975,
    "source": "static",
    "countryCode": "HR",
    "city": "Unknown",
    "address": "Zagreb Upper Town, Unknown"
  },
  {
    "id": "country-hr-plitvice-lakes-national-park",
    "name": "Plitvice Lakes National Park",
    "category": "nature",
    "lat": 44.8802,
    "lon": 15.6164,
    "source": "static",
    "countryCode": "HR",
    "city": "Unknown",
    "address": "Plitvice Lakes National Park, Unknown"
  },
  {
    "id": "country-hr-krka-national-park",
    "name": "Krka National Park",
    "category": "nature",
    "lat": 43.801,
    "lon": 15.972,
    "source": "static",
    "countryCode": "HR",
    "city": "Unknown",
    "address": "Krka National Park, Unknown"
  },
  {
    "id": "country-hr-istria-rovinj-old-town",
    "name": "Istria Rovinj Old Town",
    "category": "landmarks",
    "lat": 45.0812,
    "lon": 13.6387,
    "source": "static",
    "countryCode": "HR",
    "city": "Unknown",
    "address": "Istria Rovinj Old Town, Unknown"
  },
  {
    "id": "country-hr-pula-arena",
    "name": "Pula Arena",
    "category": "landmarks",
    "lat": 44.873,
    "lon": 13.8496,
    "source": "static",
    "countryCode": "HR",
    "city": "Unknown",
    "address": "Pula Arena, Unknown"
  },
  {
    "id": "country-hr-zadar-sea-organ",
    "name": "Zadar Sea Organ",
    "category": "other",
    "lat": 44.1194,
    "lon": 15.2314,
    "source": "static",
    "countryCode": "HR",
    "city": "Unknown",
    "address": "Zadar Sea Organ, Unknown"
  },
  {
    "id": "country-hr-korcula-old-town",
    "name": "Korcula Old Town",
    "category": "landmarks",
    "lat": 42.959,
    "lon": 17.135,
    "source": "static",
    "countryCode": "HR",
    "city": "Unknown",
    "address": "Korcula Old Town, Unknown"
  },
  {
    "id": "country-hr-brijuni-national-park",
    "name": "Brijuni National Park",
    "category": "nature",
    "lat": 44.913,
    "lon": 13.767,
    "source": "static",
    "countryCode": "HR",
    "city": "Unknown",
    "address": "Brijuni National Park, Unknown"
  },
  {
    "id": "country-hr-paklenica-national-park",
    "name": "Paklenica National Park",
    "category": "nature",
    "lat": 44.3,
    "lon": 15.45,
    "source": "static",
    "countryCode": "HR",
    "city": "Unknown",
    "address": "Paklenica National Park, Unknown"
  },
  {
    "id": "country-hr-mljet-national-park",
    "name": "Mljet National Park",
    "category": "nature",
    "lat": 42.744,
    "lon": 17.535,
    "source": "static",
    "countryCode": "HR",
    "city": "Unknown",
    "address": "Mljet National Park, Unknown"
  },
  {
    "id": "country-hr-museum-of-broken-relationships",
    "name": "Museum of Broken Relationships",
    "category": "museums",
    "lat": 45.814,
    "lon": 15.974,
    "source": "static",
    "countryCode": "HR",
    "city": "Zagreb",
    "address": "Museum of Broken Relationships, Zagreb"
  },
  {
    "id": "country-hr-dubrovnik-city-museum",
    "name": "Dubrovnik City Museum",
    "category": "museums",
    "lat": 42.6409,
    "lon": 18.11,
    "source": "static",
    "countryCode": "HR",
    "city": "Unknown",
    "address": "Dubrovnik City Museum, Unknown"
  },
  {
    "id": "country-hr-zagreb-dolac-market",
    "name": "Zagreb Dolac Market",
    "category": "food",
    "lat": 45.8144,
    "lon": 15.977,
    "source": "static",
    "countryCode": "HR",
    "city": "Unknown",
    "address": "Zagreb Dolac Market, Unknown"
  },
  {
    "id": "country-hr-split-green-market-pazar",
    "name": "Split Green Market (Pazar)",
    "category": "food",
    "lat": 43.508,
    "lon": 16.441,
    "source": "static",
    "countryCode": "HR",
    "city": "Unknown",
    "address": "Split Green Market (Pazar), Unknown"
  },
  {
    "id": "country-hr-istrian-truffle-region-motovun",
    "name": "Istrian Truffle Region Motovun",
    "category": "food",
    "lat": 45.337,
    "lon": 13.829,
    "source": "static",
    "countryCode": "HR",
    "city": "Unknown",
    "address": "Istrian Truffle Region Motovun, Unknown"
  },
  {
    "id": "country-hr-carpe-diem-beach-club-hvar",
    "name": "Carpe Diem Beach Club Hvar",
    "category": "nightlife",
    "lat": 43.176,
    "lon": 16.453,
    "source": "static",
    "countryCode": "HR",
    "city": "Unknown",
    "address": "Carpe Diem Beach Club Hvar, Unknown"
  },
  {
    "id": "country-hr-central-club-split",
    "name": "Central Club Split",
    "category": "nightlife",
    "lat": 43.509,
    "lon": 16.439,
    "source": "static",
    "countryCode": "HR",
    "city": "Unknown",
    "address": "Central Club Split, Unknown"
  },
  {
    "id": "country-hr-dubrovnik-old-port-bars",
    "name": "Dubrovnik Old Port Bars",
    "category": "nightlife",
    "lat": 42.641,
    "lon": 18.11,
    "source": "static",
    "countryCode": "HR",
    "city": "Unknown",
    "address": "Dubrovnik Old Port Bars, Unknown"
  },
  {
    "id": "country-hr-makarska-riviera-beaches",
    "name": "Makarska Riviera Beaches",
    "category": "nature",
    "lat": 43.3,
    "lon": 17.02,
    "source": "static",
    "countryCode": "HR",
    "city": "Unknown",
    "address": "Makarska Riviera Beaches, Unknown"
  },
  {
    "id": "country-hr-trogir-old-town",
    "name": "Trogir Old Town",
    "category": "landmarks",
    "lat": 43.517,
    "lon": 16.251,
    "source": "static",
    "countryCode": "HR",
    "city": "Unknown",
    "address": "Trogir Old Town, Unknown"
  },
  {
    "id": "country-hr-opatija-seafront",
    "name": "Opatija Seafront",
    "category": "nature",
    "lat": 45.337,
    "lon": 14.305,
    "source": "static",
    "countryCode": "HR",
    "city": "Unknown",
    "address": "Opatija Seafront, Unknown"
  },
  {
    "id": "country-hr-zagreb-art-pavilion",
    "name": "Art Pavilion",
    "category": "museums",
    "lat": 45.7992,
    "lon": 15.9634,
    "source": "static",
    "countryCode": "HR",
    "city": "Zagreb",
    "address": "Ulica grada Vukovara"
  },
  {
    "id": "country-hr-zagreb-ban-jelacic-square",
    "name": "Ban Jelacic Square",
    "category": "landmarks",
    "lat": 45.8318,
    "lon": 15.987,
    "source": "static",
    "countryCode": "HR",
    "city": "Zagreb",
    "address": "Bijenička cesta"
  },
  {
    "id": "country-hr-zagreb-branimirova-street-art",
    "name": "Branimirova Street Art",
    "category": "other",
    "lat": 45.8207,
    "lon": 15.9873,
    "source": "static",
    "countryCode": "HR",
    "city": "Zagreb",
    "address": "Ulica Ivana Vončine"
  },
  {
    "id": "country-hr-zagreb-britanski-trg",
    "name": "Britanski Trg",
    "category": "food",
    "lat": 45.815,
    "lon": 15.9666,
    "source": "static",
    "countryCode": "HR",
    "city": "Zagreb",
    "address": "Britanski Trg, Zagreb"
  },
  {
    "id": "country-hr-zagreb-croatian-national-theatre",
    "name": "Croatian National Theatre",
    "category": "landmarks",
    "lat": 45.8076,
    "lon": 15.9821,
    "source": "static",
    "countryCode": "HR",
    "city": "Zagreb",
    "address": "Croatian National Theatre, Zagreb"
  },
  {
    "id": "country-hr-zagreb-cvjetni-square",
    "name": "Cvjetni Square",
    "category": "food",
    "lat": 45.8116,
    "lon": 15.9654,
    "source": "static",
    "countryCode": "HR",
    "city": "Zagreb",
    "address": "Cvjetni Square, Zagreb"
  },
  {
    "id": "country-hr-zagreb-dolac-market-2",
    "name": "Dolac Market",
    "category": "food",
    "lat": 45.8186,
    "lon": 16.0013,
    "source": "static",
    "countryCode": "HR",
    "city": "Zagreb",
    "address": "Dolac Market, Zagreb"
  },
  {
    "id": "country-hr-zagreb-jarun-lake",
    "name": "Jarun Lake",
    "category": "nature",
    "lat": 45.8059,
    "lon": 15.9855,
    "source": "static",
    "countryCode": "HR",
    "city": "Zagreb",
    "address": "Jarun Lake, Zagreb"
  },
  {
    "id": "country-hr-zagreb-kaptol-district",
    "name": "Kaptol District",
    "category": "food",
    "lat": 45.8068,
    "lon": 15.9936,
    "source": "static",
    "countryCode": "HR",
    "city": "Zagreb",
    "address": "Kaptol District, Zagreb"
  },
  {
    "id": "country-hr-zagreb-maksimir-park",
    "name": "Maksimir Park",
    "category": "nature",
    "lat": 45.8305,
    "lon": 15.9874,
    "source": "static",
    "countryCode": "HR",
    "city": "Zagreb",
    "address": "Maksimir Park, Zagreb"
  },
  {
    "id": "country-hr-zagreb-medvednica-sljeme",
    "name": "Medvednica / Sljeme",
    "category": "nature",
    "lat": 45.8153,
    "lon": 15.9978,
    "source": "static",
    "countryCode": "HR",
    "city": "Zagreb",
    "address": "Medvednica / Sljeme, Zagreb"
  },
  {
    "id": "country-hr-zagreb-mimara-museum",
    "name": "Mimara Museum",
    "category": "museums",
    "lat": 45.8044,
    "lon": 15.9584,
    "source": "static",
    "countryCode": "HR",
    "city": "Zagreb",
    "address": "Mimara Museum, Zagreb"
  },
  {
    "id": "country-hr-zagreb-mirogoj-cemetery",
    "name": "Mirogoj Cemetery",
    "category": "landmarks",
    "lat": 45.8313,
    "lon": 15.9993,
    "source": "static",
    "countryCode": "HR",
    "city": "Zagreb",
    "address": "Mirogoj Cemetery, Zagreb"
  },
  {
    "id": "country-hr-zagreb-park-ribnjak",
    "name": "Park Ribnjak",
    "category": "nature",
    "lat": 45.8031,
    "lon": 15.9788,
    "source": "static",
    "countryCode": "HR",
    "city": "Zagreb",
    "address": "Park Ribnjak, Zagreb"
  },
  {
    "id": "country-hr-zagreb-stone-gate",
    "name": "Stone Gate",
    "category": "landmarks",
    "lat": 45.8053,
    "lon": 15.9577,
    "source": "static",
    "countryCode": "HR",
    "city": "Zagreb",
    "address": "Stone Gate, Zagreb"
  },
  {
    "id": "country-hr-zagreb-tkalca-nightlife",
    "name": "Tkalca Nightlife",
    "category": "nightlife",
    "lat": 45.8109,
    "lon": 16.0068,
    "source": "static",
    "countryCode": "HR",
    "city": "Zagreb",
    "address": "Tkalca Nightlife, Zagreb"
  },
  {
    "id": "country-hr-zagreb-tkalciceva-street",
    "name": "Tkalciceva Street",
    "category": "food",
    "lat": 45.8213,
    "lon": 15.9685,
    "source": "static",
    "countryCode": "HR",
    "city": "Zagreb",
    "address": "Tkalciceva Street, Zagreb"
  },
  {
    "id": "country-hr-zagreb-upper-town-gornji-grad",
    "name": "Upper Town (Gornji Grad)",
    "category": "landmarks",
    "lat": 45.8212,
    "lon": 15.97,
    "source": "static",
    "countryCode": "HR",
    "city": "Zagreb",
    "address": "Upper Town (Gornji Grad), Zagreb"
  },
  {
    "id": "country-hr-zagreb-vintage-industrial-bar",
    "name": "Vintage Industrial Bar",
    "category": "nightlife",
    "lat": 45.8007,
    "lon": 15.9843,
    "source": "static",
    "countryCode": "HR",
    "city": "Zagreb",
    "address": "Vintage Industrial Bar, Zagreb"
  },
  {
    "id": "country-hr-zagreb-zagreb-360-viewpoint",
    "name": "Zagreb 360 Viewpoint",
    "category": "landmarks",
    "lat": 45.8047,
    "lon": 15.9882,
    "source": "static",
    "countryCode": "HR",
    "city": "Zagreb",
    "address": "Zagreb 360 Viewpoint, Zagreb"
  },
  {
    "id": "country-hr-zagreb-zagreb-botanical-garden",
    "name": "Zagreb Botanical Garden",
    "category": "nature",
    "lat": 45.8247,
    "lon": 16.0042,
    "source": "static",
    "countryCode": "HR",
    "city": "Zagreb",
    "address": "Zagreb Botanical Garden, Zagreb"
  },
  {
    "id": "country-hr-zagreb-zrinjevac-park",
    "name": "Zrinjevac Park",
    "category": "nature",
    "lat": 45.827,
    "lon": 15.9642,
    "source": "static",
    "countryCode": "HR",
    "city": "Zagreb",
    "address": "Zrinjevac Park, Zagreb"
  }
]
