[
  {
    "id": "country-hu-budapest-parliament-building",
    "name": "Budapest Parliament Building",
    "category": "landmarks",
    "lat": 47.5076,
    "lon": 19.0457,
    "source": "static",
    "countryCode": "HU",
    "city": "Budapest",
    "address": "1-3 Kossuth Lajos Square"
  },
  {
    "id": "country-hu-buda-castle",
    "name": "Buda Castle",
    "category": "landmarks",
    "lat": 47.4969,
    "lon": 19.0399,
    "source": "static",
    "countryCode": "HU",
    "city": "Budapest",
    "address": "Buda"
  },
  {
    "id": "country-hu-fishermans-bastion",
    "name": "Fisherman's Bastion",
    "category": "landmarks",
    "lat": 47.5029,
    "lon": 19.0345,
    "source": "static",
    "countryCode": "HU",
    "city": "Budapest",
    "address": "Gimnázium utca"
  },
  {
    "id": "country-hu-st-stephens-basilica-budapest",
    "name": "St. Stephen's Basilica Budapest",
    "category": "landmarks",
    "lat": 47.5009,
    "lon": 19.0536,
    "source": "static",
    "countryCode": "HU",
    "city": "Unknown",
    "address": "St. Stephen's Basilica Budapest, Unknown"
  },
  {
    "id": "country-hu-sz-chenyi-thermal-bath",
    "name": "Széchenyi Thermal Bath",
    "category": "other",
    "lat": 47.5189,
    "lon": 19.0825,
    "source": "static",
    "countryCode": "HU",
    "city": "Unknown",
    "address": "Széchenyi Thermal Bath, Unknown"
  },
  {
    "id": "country-hu-chain-bridge",
    "name": "Chain Bridge",
    "category": "landmarks",
    "lat": 47.498,
    "lon": 19.044,
    "source": "static",
    "countryCode": "HU",
    "city": "Budapest",
    "address": "Chain Bridge, Budapest"
  },
  {
    "id": "country-hu-heroes-square",
    "name": "Heroes' Square",
    "category": "landmarks",
    "lat": 47.5149,
    "lon": 19.077,
    "source": "static",
    "countryCode": "HU",
    "city": "Budapest",
    "address": "Heroes' Square, Budapest"
  },
  {
    "id": "country-hu-lake-balaton",
    "name": "Lake Balaton",
    "category": "nature",
    "lat": 46.75,
    "lon": 17.7,
    "source": "static",
    "countryCode": "HU",
    "city": "Unknown",
    "address": "Lake Balaton, Unknown"
  },
  {
    "id": "country-hu-hortobagy-national-park",
    "name": "Hortobagy National Park",
    "category": "nature",
    "lat": 47.58,
    "lon": 21.15,
    "source": "static",
    "countryCode": "HU",
    "city": "Unknown",
    "address": "Hortobagy National Park, Unknown"
  },
  {
    "id": "country-hu-aggtelek-national-park-caves",
    "name": "Aggtelek National Park Caves",
    "category": "nature",
    "lat": 48.47,
    "lon": 20.5,
    "source": "static",
    "countryCode": "HU",
    "city": "Unknown",
    "address": "Aggtelek National Park Caves, Unknown"
  },
  {
    "id": "country-hu-danube-bend-viewpoints",
    "name": "Danube Bend Viewpoints",
    "category": "nature",
    "lat": 47.785,
    "lon": 18.97,
    "source": "static",
    "countryCode": "HU",
    "city": "Unknown",
    "address": "Danube Bend Viewpoints, Unknown"
  },
  {
    "id": "country-hu-eger-castle",
    "name": "Eger Castle",
    "category": "landmarks",
    "lat": 47.9025,
    "lon": 20.3772,
    "source": "static",
    "countryCode": "HU",
    "city": "Unknown",
    "address": "Eger Castle, Unknown"
  },
  {
    "id": "country-hu-pecs-old-town",
    "name": "Pecs Old Town",
    "category": "landmarks",
    "lat": 46.0727,
    "lon": 18.2323,
    "source": "static",
    "countryCode": "HU",
    "city": "Unknown",
    "address": "Pecs Old Town, Unknown"
  },
  {
    "id": "country-hu-szentendre",
    "name": "Szentendre",
    "category": "landmarks",
    "lat": 47.669,
    "lon": 19.075,
    "source": "static",
    "countryCode": "HU",
    "city": "Unknown",
    "address": "Szentendre, Unknown"
  },
  {
    "id": "country-hu-hungarian-national-museum",
    "name": "Hungarian National Museum",
    "category": "museums",
    "lat": 47.4917,
    "lon": 19.061,
    "source": "static",
    "countryCode": "HU",
    "city": "Budapest",
    "address": "Hungarian National Museum, Budapest"
  },
  {
    "id": "country-hu-house-of-terror-museum",
    "name": "House of Terror Museum",
    "category": "museums",
    "lat": 47.5072,
    "lon": 19.0658,
    "source": "static",
    "countryCode": "HU",
    "city": "Budapest",
    "address": "House of Terror Museum, Budapest"
  },
  {
    "id": "country-hu-museum-of-fine-arts-budapest",
    "name": "Museum of Fine Arts Budapest",
    "category": "museums",
    "lat": 47.516,
    "lon": 19.0776,
    "source": "static",
    "countryCode": "HU",
    "city": "Unknown",
    "address": "Museum of Fine Arts Budapest, Unknown"
  },
  {
    "id": "country-hu-great-market-hall",
    "name": "Great Market Hall",
    "category": "food",
    "lat": 47.4865,
    "lon": 19.0583,
    "source": "static",
    "countryCode": "HU",
    "city": "Budapest",
    "address": "Great Market Hall, Budapest"
  },
  {
    "id": "country-hu-gozsdu-courtyard-food",
    "name": "Gozsdu Courtyard Food",
    "category": "food",
    "lat": 47.4976,
    "lon": 19.0622,
    "source": "static",
    "countryCode": "HU",
    "city": "Unknown",
    "address": "Gozsdu Courtyard Food, Unknown"
  },
  {
    "id": "country-hu-ruin-bar-szimpla-kert",
    "name": "Ruin Bar Szimpla Kert",
    "category": "nightlife",
    "lat": 47.4978,
    "lon": 19.0651,
    "source": "static",
    "countryCode": "HU",
    "city": "Unknown",
    "address": "Ruin Bar Szimpla Kert, Unknown"
  },
  {
    "id": "country-hu-instant-fogas-complex",
    "name": "Instant-Fogas Complex",
    "category": "nightlife",
    "lat": 47.4986,
    "lon": 19.0599,
    "source": "static",
    "countryCode": "HU",
    "city": "Unknown",
    "address": "Instant-Fogas Complex, Unknown"
  },
  {
    "id": "country-hu-budapest-river-cruise-night",
    "name": "Budapest River Cruise Night",
    "category": "nightlife",
    "lat": 47.498,
    "lon": 19.044,
    "source": "static",
    "countryCode": "HU",
    "city": "Unknown",
    "address": "Budapest River Cruise Night, Unknown"
  },
  {
    "id": "country-hu-tokaj-wine-region",
    "name": "Tokaj Wine Region",
    "category": "food",
    "lat": 48.117,
    "lon": 21.408,
    "source": "static",
    "countryCode": "HU",
    "city": "Unknown",
    "address": "Tokaj Wine Region, Unknown"
  },
  {
    "id": "country-hu-sopron-old-town",
    "name": "Sopron Old Town",
    "category": "landmarks",
    "lat": 47.684,
    "lon": 16.584,
    "source": "static",
    "countryCode": "HU",
    "city": "Unknown",
    "address": "Sopron Old Town, Unknown"
  },
  {
    "id": "country-hu-balaton-uplands-national-park",
    "name": "Balaton Uplands National Park",
    "category": "nature",
    "lat": 46.9,
    "lon": 17.7,
    "source": "static",
    "countryCode": "HU",
    "city": "Unknown",
    "address": "Balaton Uplands National Park, Unknown"
  },
  {
    "id": "country-hu-budapest-a38-ship",
    "name": "A38 Ship",
    "category": "nightlife",
    "lat": 47.5114,
    "lon": 19.031,
    "source": "static",
    "countryCode": "HU",
    "city": "Budapest",
    "address": "6 Keleti Károly utca"
  },
  {
    "id": "country-hu-budapest-andrassy-avenu",
    "name": "Andrassy Avenue",
    "category": "food",
    "lat": 47.4886,
    "lon": 19.0604,
    "source": "static",
    "countryCode": "HU",
    "city": "Budapest",
    "address": "6 Calvin Square"
  },
  {
    "id": "country-hu-budapest-city-park",
    "name": "City Park",
    "category": "nature",
    "lat": 47.4822,
    "lon": 19.0261,
    "source": "static",
    "countryCode": "HU",
    "city": "Budapest",
    "address": "City Park, Budapest"
  },
  {
    "id": "country-hu-budapest-danube-promenade",
    "name": "Danube Promenade",
    "category": "nature",
    "lat": 47.4901,
    "lon": 19.0194,
    "source": "static",
    "countryCode": "HU",
    "city": "Budapest",
    "address": "Danube Promenade, Budapest"
  },
  {
    "id": "country-hu-budapest-dohany-street-synagogu",
    "name": "Dohany Street Synagogue",
    "category": "landmarks",
    "lat": 47.5074,
    "lon": 19.0571,
    "source": "static",
    "countryCode": "HU",
    "city": "Budapest",
    "address": "Dohany Street Synagogue, Budapest"
  },
  {
    "id": "country-hu-budapest-gellert-baths",
    "name": "Gellert Baths",
    "category": "landmarks",
    "lat": 47.5088,
    "lon": 19.064,
    "source": "static",
    "countryCode": "HU",
    "city": "Budapest",
    "address": "Gellert Baths, Budapest"
  },
  {
    "id": "country-hu-budapest-gellert-hill-citadella",
    "name": "Gellert Hill Citadella",
    "category": "nature",
    "lat": 47.491,
    "lon": 19.0421,
    "source": "static",
    "countryCode": "HU",
    "city": "Budapest",
    "address": "Gellert Hill Citadella, Budapest"
  },
  {
    "id": "country-hu-budapest-hungarian-parliament",
    "name": "Hungarian Parliament",
    "category": "landmarks",
    "lat": 47.5026,
    "lon": 19.0244,
    "source": "static",
    "countryCode": "HU",
    "city": "Budapest",
    "address": "Hungarian Parliament, Budapest"
  },
  {
    "id": "country-hu-budapest-instant-fogas",
    "name": "Instant-Fogas",
    "category": "nightlife",
    "lat": 47.5072,
    "lon": 19.0447,
    "source": "static",
    "countryCode": "HU",
    "city": "Budapest",
    "address": "Instant-Fogas, Budapest"
  },
  {
    "id": "country-hu-budapest-jewish-quarter-bars",
    "name": "Jewish Quarter Bars",
    "category": "nightlife",
    "lat": 47.491,
    "lon": 19.0405,
    "source": "static",
    "countryCode": "HU",
    "city": "Budapest",
    "address": "Jewish Quarter Bars, Budapest"
  },
  {
    "id": "country-hu-budapest-kossuth-lajos-square",
    "name": "Kossuth Lajos Square",
    "category": "landmarks",
    "lat": 47.5077,
    "lon": 19.0306,
    "source": "static",
    "countryCode": "HU",
    "city": "Budapest",
    "address": "Kossuth Lajos Square, Budapest"
  },
  {
    "id": "country-hu-budapest-margaret-island",
    "name": "Margaret Island",
    "category": "nature",
    "lat": 47.5097,
    "lon": 19.0518,
    "source": "static",
    "countryCode": "HU",
    "city": "Budapest",
    "address": "Margaret Island, Budapest"
  },
  {
    "id": "country-hu-budapest-matthias-church",
    "name": "Matthias Church",
    "category": "landmarks",
    "lat": 47.5061,
    "lon": 19.0607,
    "source": "static",
    "countryCode": "HU",
    "city": "Budapest",
    "address": "Matthias Church, Budapest"
  },
  {
    "id": "country-hu-budapest-new-york-cafe",
    "name": "New York Cafe",
    "category": "food",
    "lat": 47.487,
    "lon": 19.0234,
    "source": "static",
    "countryCode": "HU",
    "city": "Budapest",
    "address": "New York Cafe, Budapest"
  },
  {
    "id": "country-hu-budapest-st-stephen-s-basilica",
    "name": "St. Stephen's Basilica",
    "category": "landmarks",
    "lat": 47.4831,
    "lon": 19.0595,
    "source": "static",
    "countryCode": "HU",
    "city": "Budapest",
    "address": "St. Stephen's Basilica, Budapest"
  },
  {
    "id": "country-hu-budapest-szechenyi-thermal-bath",
    "name": "Szechenyi Thermal Bath",
    "category": "landmarks",
    "lat": 47.4917,
    "lon": 19.0338,
    "source": "static",
    "countryCode": "HU",
    "city": "Budapest",
    "address": "Szechenyi Thermal Bath, Budapest"
  },
  {
    "id": "country-hu-budapest-szimpla-kert-ruin-bar",
    "name": "Szimpla Kert Ruin Bar",
    "category": "nightlife",
    "lat": 47.5058,
    "lon": 19.0418,
    "source": "static",
    "countryCode": "HU",
    "city": "Budapest",
    "address": "Szimpla Kert Ruin Bar, Budapest"
  },
  {
    "id": "country-hu-budapest-vajdahunyad-castle",
    "name": "Vajdahunyad Castle",
    "category": "landmarks",
    "lat": 47.503,
    "lon": 19.0396,
    "source": "static",
    "countryCode": "HU",
    "city": "Budapest",
    "address": "Vajdahunyad Castle, Budapest"
  }
]
