[
  {
    "id": "country-ie-dublin-temple-bar",
    "name": "Dublin Temple Bar",
    "category": "nightlife",
    "lat": 53.3455,
    "lon": -6.264,
    "source": "static",
    "countryCode": "IE",
    "city": "Dublin",
    "address": "47-48 Temple Bar"
  },
  {
    "id": "country-ie-trinity-college-and-book-of-kells",
    "name": "Trinity College and Book of Kells",
    "category": "museums",
    "lat": 53.3438,
    "lon": -6.2546,
    "source": "static",
    "countryCode": "IE",
    "city": "Dublin",
    "address": "New Square"
  },
  {
    "id": "country-ie-guinness-storehouse",
    "name": "Guinness Storehouse",
    "category": "food",
    "lat": 53.3419,
    "lon": -6.2863,
    "source": "static",
    "countryCode": "IE",
    "city": "Dublin",
    "address": "Market Street South"
  },
  {
    "id": "country-ie-dublin-castle",
    "name": "Dublin Castle",
    "category": "landmarks",
    "lat": 53.343,
    "lon": -6.2674,
    "source": "static",
    "countryCode": "IE",
    "city": "Dublin",
    "address": "Dublin Castle, Dublin"
  },
  {
    "id": "country-ie-st-patricks-cathedral-dublin",
    "name": "St Patrick's Cathedral Dublin",
    "category": "landmarks",
    "lat": 53.3395,
    "lon": -6.2713,
    "source": "static",
    "countryCode": "IE",
    "city": "Unknown",
    "address": "St Patrick's Cathedral Dublin, Unknown"
  },
  {
    "id": "country-ie-cliffs-of-moher",
    "name": "Cliffs of Moher",
    "category": "nature",
    "lat": 52.9715,
    "lon": -9.4309,
    "source": "static",
    "countryCode": "IE",
    "city": "Unknown",
    "address": "Cliffs of Moher, Unknown"
  },
  {
    "id": "country-ie-ring-of-kerry-scenic-route",
    "name": "Ring of Kerry Scenic Route",
    "category": "nature",
    "lat": 52,
    "lon": -9.6,
    "source": "static",
    "countryCode": "IE",
    "city": "Unknown",
    "address": "Ring of Kerry Scenic Route, Unknown"
  },
  {
    "id": "country-ie-killarney-national-park",
    "name": "Killarney National Park",
    "category": "nature",
    "lat": 52.016,
    "lon": -9.504,
    "source": "static",
    "countryCode": "IE",
    "city": "Unknown",
    "address": "Killarney National Park, Unknown"
  },
  {
    "id": "country-ie-galway-latin-quarter",
    "name": "Galway Latin Quarter",
    "category": "landmarks",
    "lat": 53.272,
    "lon": -9.053,
    "source": "static",
    "countryCode": "IE",
    "city": "Unknown",
    "address": "Galway Latin Quarter, Unknown"
  },
  {
    "id": "country-ie-claddagh-galway",
    "name": "Claddagh Galway",
    "category": "landmarks",
    "lat": 53.27,
    "lon": -9.06,
    "source": "static",
    "countryCode": "IE",
    "city": "Unknown",
    "address": "Claddagh Galway, Unknown"
  },
  {
    "id": "country-ie-aran-islands",
    "name": "Aran Islands",
    "category": "nature",
    "lat": 53.11,
    "lon": -9.68,
    "source": "static",
    "countryCode": "IE",
    "city": "Unknown",
    "address": "Aran Islands, Unknown"
  },
  {
    "id": "country-ie-dingle-peninsula",
    "name": "Dingle Peninsula",
    "category": "nature",
    "lat": 52.14,
    "lon": -10.27,
    "source": "static",
    "countryCode": "IE",
    "city": "Unknown",
    "address": "Dingle Peninsula, Unknown"
  },
  {
    "id": "country-ie-blarney-castle",
    "name": "Blarney Castle",
    "category": "landmarks",
    "lat": 51.929,
    "lon": -8.57,
    "source": "static",
    "countryCode": "IE",
    "city": "Unknown",
    "address": "Blarney Castle, Unknown"
  },
  {
    "id": "country-ie-rock-of-cashel",
    "name": "Rock of Cashel",
    "category": "landmarks",
    "lat": 52.52,
    "lon": -7.89,
    "source": "static",
    "countryCode": "IE",
    "city": "Unknown",
    "address": "Rock of Cashel, Unknown"
  },
  {
    "id": "country-ie-newgrange",
    "name": "Newgrange",
    "category": "landmarks",
    "lat": 53.6947,
    "lon": -6.4752,
    "source": "static",
    "countryCode": "IE",
    "city": "Unknown",
    "address": "Newgrange, Unknown"
  },
  {
    "id": "country-ie-titanic-belfast",
    "name": "Titanic Belfast",
    "category": "museums",
    "lat": 54.6081,
    "lon": -5.909,
    "source": "static",
    "countryCode": "IE",
    "city": "Unknown",
    "address": "Titanic Belfast, Unknown"
  },
  {
    "id": "country-ie-cork-english-market",
    "name": "Cork English Market",
    "category": "food",
    "lat": 51.8977,
    "lon": -8.4706,
    "source": "static",
    "countryCode": "IE",
    "city": "Unknown",
    "address": "Cork English Market, Unknown"
  },
  {
    "id": "country-ie-galway-food-market",
    "name": "Galway Food Market",
    "category": "food",
    "lat": 53.272,
    "lon": -9.053,
    "source": "static",
    "countryCode": "IE",
    "city": "Unknown",
    "address": "Galway Food Market, Unknown"
  },
  {
    "id": "country-ie-dublin-grafton-street",
    "name": "Dublin Grafton Street",
    "category": "food",
    "lat": 53.3436,
    "lon": -6.2596,
    "source": "static",
    "countryCode": "IE",
    "city": "Unknown",
    "address": "Dublin Grafton Street, Unknown"
  },
  {
    "id": "country-ie-whelans-dublin",
    "name": "Whelan's Dublin",
    "category": "nightlife",
    "lat": 53.337,
    "lon": -6.2653,
    "source": "static",
    "countryCode": "IE",
    "city": "Unknown",
    "address": "Whelan's Dublin, Unknown"
  },
  {
    "id": "country-ie-the-george-dublin",
    "name": "The George Dublin",
    "category": "nightlife",
    "lat": 53.3408,
    "lon": -6.2647,
    "source": "static",
    "countryCode": "IE",
    "city": "Unknown",
    "address": "The George Dublin, Unknown"
  },
  {
    "id": "country-ie-dublin-docklands",
    "name": "Dublin Docklands",
    "category": "other",
    "lat": 53.3498,
    "lon": -6.239,
    "source": "static",
    "countryCode": "IE",
    "city": "Unknown",
    "address": "Dublin Docklands, Unknown"
  },
  {
    "id": "country-ie-wicklow-mountains",
    "name": "Wicklow Mountains",
    "category": "nature",
    "lat": 53.1,
    "lon": -6.5,
    "source": "static",
    "countryCode": "IE",
    "city": "Unknown",
    "address": "Wicklow Mountains, Unknown"
  },
  {
    "id": "country-ie-kilmainham-gaol-museum",
    "name": "Kilmainham Gaol Museum",
    "category": "museums",
    "lat": 53.3418,
    "lon": -6.3098,
    "source": "static",
    "countryCode": "IE",
    "city": "Unknown",
    "address": "Kilmainham Gaol Museum, Unknown"
  },
  {
    "id": "country-ie-howth-cliff-walk",
    "name": "Howth Cliff Walk",
    "category": "nature",
    "lat": 53.386,
    "lon": -6.07,
    "source": "static",
    "countryCode": "IE",
    "city": "Dublin",
    "address": "Howth Cliff Walk, Dublin"
  },
  {
    "id": "country-ie-dublin-aviva-stadium",
    "name": "Aviva Stadium",
    "category": "landmarks",
    "lat": 53.3533,
    "lon": -6.2375,
    "source": "static",
    "countryCode": "IE",
    "city": "Dublin",
    "address": "160 Church Road"
  },
  {
    "id": "country-ie-dublin-christ-church-cathedral",
    "name": "Christ Church Cathedral",
    "category": "landmarks",
    "lat": 53.3563,
    "lon": -6.2578,
    "source": "static",
    "countryCode": "IE",
    "city": "Dublin",
    "address": "Mountjoy Square South"
  },
  {
    "id": "country-ie-dublin-croke-park",
    "name": "Croke Park",
    "category": "landmarks",
    "lat": 53.3454,
    "lon": -6.2444,
    "source": "static",
    "countryCode": "IE",
    "city": "Dublin",
    "address": "Windmill Lane"
  },
  {
    "id": "country-ie-dublin-epic-the-irish-emigration-museum",
    "name": "EPIC The Irish Emigration Museum",
    "category": "museums",
    "lat": 53.3601,
    "lon": -6.282,
    "source": "static",
    "countryCode": "IE",
    "city": "Dublin",
    "address": "EPIC The Irish Emigration Museum, Dublin"
  },
  {
    "id": "country-ie-dublin-george-s-street-arcade",
    "name": "George's Street Arcade",
    "category": "food",
    "lat": 53.3524,
    "lon": -6.2523,
    "source": "static",
    "countryCode": "IE",
    "city": "Dublin",
    "address": "George's Street Arcade, Dublin"
  },
  {
    "id": "country-ie-dublin-grafton-street-2",
    "name": "Grafton Street",
    "category": "food",
    "lat": 53.3549,
    "lon": -6.2677,
    "source": "static",
    "countryCode": "IE",
    "city": "Dublin",
    "address": "Grafton Street, Dublin"
  },
  {
    "id": "country-ie-dublin-grand-canal-dock",
    "name": "Grand Canal Dock",
    "category": "nightlife",
    "lat": 53.3504,
    "lon": -6.2475,
    "source": "static",
    "countryCode": "IE",
    "city": "Dublin",
    "address": "Grand Canal Dock, Dublin"
  },
  {
    "id": "country-ie-dublin-guinness-storehouse",
    "name": "Guinness Storehouse",
    "category": "museums",
    "lat": 53.3382,
    "lon": -6.2454,
    "source": "static",
    "countryCode": "IE",
    "city": "Dublin",
    "address": "Guinness Storehouse, Dublin"
  },
  {
    "id": "country-ie-dublin-ha-penny-bridge",
    "name": "Ha'penny Bridge",
    "category": "landmarks",
    "lat": 53.3382,
    "lon": -6.2597,
    "source": "static",
    "countryCode": "IE",
    "city": "Dublin",
    "address": "Ha'penny Bridge, Dublin"
  },
  {
    "id": "country-ie-dublin-iveagh-gardens",
    "name": "Iveagh Gardens",
    "category": "nature",
    "lat": 53.3406,
    "lon": -6.2715,
    "source": "static",
    "countryCode": "IE",
    "city": "Dublin",
    "address": "Iveagh Gardens, Dublin"
  },
  {
    "id": "country-ie-dublin-kilmainham-gaol",
    "name": "Kilmainham Gaol",
    "category": "museums",
    "lat": 53.3618,
    "lon": -6.2539,
    "source": "static",
    "countryCode": "IE",
    "city": "Dublin",
    "address": "Kilmainham Gaol, Dublin"
  },
  {
    "id": "country-ie-dublin-merrion-square",
    "name": "Merrion Square",
    "category": "nature",
    "lat": 53.3377,
    "lon": -6.2431,
    "source": "static",
    "countryCode": "IE",
    "city": "Dublin",
    "address": "Merrion Square, Dublin"
  },
  {
    "id": "country-ie-dublin-national-gallery-of-ireland",
    "name": "National Gallery of Ireland",
    "category": "museums",
    "lat": 53.3429,
    "lon": -6.2798,
    "source": "static",
    "countryCode": "IE",
    "city": "Dublin",
    "address": "National Gallery of Ireland, Dublin"
  },
  {
    "id": "country-ie-dublin-o-connell-street",
    "name": "O'Connell Street",
    "category": "landmarks",
    "lat": 53.3598,
    "lon": -6.2699,
    "source": "static",
    "countryCode": "IE",
    "city": "Dublin",
    "address": "O'Connell Street, Dublin"
  },
  {
    "id": "country-ie-dublin-phonix-park",
    "name": "Phoenix Park",
    "category": "nature",
    "lat": 53.3349,
    "lon": -6.2432,
    "source": "static",
    "countryCode": "IE",
    "city": "Dublin",
    "address": "Phoenix Park, Dublin"
  },
  {
    "id": "country-ie-dublin-smithfield-square",
    "name": "Smithfield Square",
    "category": "nightlife",
    "lat": 53.3466,
    "lon": -6.2474,
    "source": "static",
    "countryCode": "IE",
    "city": "Dublin",
    "address": "Smithfield Square, Dublin"
  },
  {
    "id": "country-ie-dublin-st-stephen-s-green",
    "name": "St. Stephen's Green",
    "category": "nature",
    "lat": 53.3565,
    "lon": -6.2549,
    "source": "static",
    "countryCode": "IE",
    "city": "Dublin",
    "address": "St. Stephen's Green, Dublin"
  },
  {
    "id": "country-ie-dublin-stoneybatter",
    "name": "Stoneybatter",
    "category": "food",
    "lat": 53.3597,
    "lon": -6.2779,
    "source": "static",
    "countryCode": "IE",
    "city": "Dublin",
    "address": "Stoneybatter, Dublin"
  },
  {
    "id": "country-ie-dublin-temple-bar-2",
    "name": "Temple Bar",
    "category": "nightlife",
    "lat": 53.3525,
    "lon": -6.2497,
    "source": "static",
    "countryCode": "IE",
    "city": "Dublin",
    "address": "Temple Bar, Dublin"
  },
  {
    "id": "country-ie-dublin-the-brazen-head",
    "name": "The Brazen Head",
    "category": "nightlife",
    "lat": 53.3531,
    "lon": -6.2738,
    "source": "static",
    "countryCode": "IE",
    "city": "Dublin",
    "address": "The Brazen Head, Dublin"
  },
  {
    "id": "country-ie-dublin-trinity-college-book-of-kells",
    "name": "Trinity College & Book of Kells",
    "category": "museums",
    "lat": 53.3357,
    "lon": -6.2617,
    "source": "static",
    "countryCode": "IE",
    "city": "Dublin",
    "address": "Trinity College & Book of Kells, Dublin"
  }
]
