[
  {
    "id": "country-jp-tokyo-skytree",
    "name": "Tokyo Skytree",
    "category": "landmarks",
    "lat": 35.7101,
    "lon": 139.8107,
    "source": "static",
    "countryCode": "JP",
    "city": "Sumida",
    "address": "2 Oshiage 1"
  },
  {
    "id": "country-jp-fushimi-inari",
    "name": "Fushimi Inari Shrine",
    "category": "landmarks",
    "lat": 34.9671,
    "lon": 135.7727,
    "source": "static",
    "countryCode": "JP",
    "city": "Kyoto",
    "address": "表参道"
  },
  {
    "id": "country-jp-arashiyama-bamboo-grove",
    "name": "Arashiyama Bamboo Grove",
    "category": "nature",
    "lat": 35.0168,
    "lon": 135.6713,
    "source": "static",
    "countryCode": "JP",
    "city": "Kyoto",
    "address": "Bamboo Groves"
  },
  {
    "id": "country-jp-osaka-castle",
    "name": "Osaka Castle",
    "category": "landmarks",
    "lat": 34.6873,
    "lon": 135.5262,
    "source": "static",
    "countryCode": "JP",
    "city": "Unknown",
    "address": "Osaka Castle, Unknown"
  },
  {
    "id": "country-jp-hiroshima-peace-memorial",
    "name": "Hiroshima Peace Memorial",
    "category": "museums",
    "lat": 34.3955,
    "lon": 132.4536,
    "source": "static",
    "countryCode": "JP",
    "city": "Unknown",
    "address": "Hiroshima Peace Memorial, Unknown"
  },
  {
    "id": "country-jp-mount-fuji",
    "name": "Mount Fuji",
    "category": "nature",
    "lat": 35.3606,
    "lon": 138.7274,
    "source": "static",
    "countryCode": "JP",
    "city": "Unknown",
    "address": "Mount Fuji, Unknown"
  },
  {
    "id": "country-jp-nara-park",
    "name": "Nara Park",
    "category": "nature",
    "lat": 34.6851,
    "lon": 135.8431,
    "source": "static",
    "countryCode": "JP",
    "city": "Unknown",
    "address": "Nara Park, Unknown"
  },
  {
    "id": "country-jp-tsukiji-outer-market",
    "name": "Tsukiji Outer Market",
    "category": "food",
    "lat": 35.6655,
    "lon": 139.7708,
    "source": "static",
    "countryCode": "JP",
    "city": "Tokyo",
    "address": "Tsukiji Outer Market, Tokyo"
  },
  {
    "id": "country-jp-odori-park",
    "name": "Odori Park",
    "category": "nature",
    "lat": 43.0621,
    "lon": 141.3544,
    "source": "static",
    "countryCode": "JP",
    "city": "Unknown",
    "address": "Odori Park, Unknown"
  },
  {
    "id": "country-jp-tokyo-national-museum",
    "name": "Tokyo National Museum",
    "category": "museums",
    "lat": 35.7188,
    "lon": 139.7765,
    "source": "static",
    "countryCode": "JP",
    "city": "Tokyo",
    "address": "Tokyo National Museum, Tokyo"
  },
  {
    "id": "country-jp-tokyo-womb",
    "name": "WOMB (Tokyo)",
    "category": "nightlife",
    "lat": 35.6582,
    "lon": 139.6993,
    "source": "static",
    "countryCode": "JP",
    "city": "Unknown",
    "address": "WOMB (Tokyo), Unknown"
  },
  {
    "id": "country-jp-tokyo-ageha",
    "name": "ageHa (Tokyo)",
    "category": "nightlife",
    "lat": 35.6481,
    "lon": 139.8286,
    "source": "static",
    "countryCode": "JP",
    "city": "Unknown",
    "address": "ageHa (Tokyo), Unknown"
  },
  {
    "id": "country-jp-tokyo-golden-gai",
    "name": "Golden Gai (Tokyo)",
    "category": "nightlife",
    "lat": 35.6951,
    "lon": 139.7047,
    "source": "static",
    "countryCode": "JP",
    "city": "Unknown",
    "address": "Golden Gai (Tokyo), Unknown"
  },
  {
    "id": "country-jp-tokyo-omoide-yokocho",
    "name": "Omoide Yokocho (Tokyo)",
    "category": "nightlife",
    "lat": 35.6937,
    "lon": 139.7006,
    "source": "static",
    "countryCode": "JP",
    "city": "Unknown",
    "address": "Omoide Yokocho (Tokyo), Unknown"
  },
  {
    "id": "country-jp-osaka-giraffe",
    "name": "GIRAFFE Osaka",
    "category": "nightlife",
    "lat": 34.6717,
    "lon": 135.5031,
    "source": "static",
    "countryCode": "JP",
    "city": "Unknown",
    "address": "GIRAFFE Osaka, Unknown"
  },
  {
    "id": "country-jp-osaka-dotonbori-bars",
    "name": "Dotonbori Nightlife (Osaka)",
    "category": "nightlife",
    "lat": 34.6687,
    "lon": 135.5019,
    "source": "static",
    "countryCode": "JP",
    "city": "Unknown",
    "address": "Dotonbori Nightlife (Osaka), Unknown"
  },
  {
    "id": "country-jp-kyoto-pontocho-alley",
    "name": "Pontocho Alley (Kyoto)",
    "category": "nightlife",
    "lat": 35.0039,
    "lon": 135.7709,
    "source": "static",
    "countryCode": "JP",
    "city": "Unknown",
    "address": "Pontocho Alley (Kyoto), Unknown"
  },
  {
    "id": "country-jp-kiyomizu-dera",
    "name": "Kiyomizu-dera",
    "category": "landmarks",
    "lat": 34.9948,
    "lon": 135.785,
    "source": "static",
    "countryCode": "JP",
    "city": "Unknown",
    "address": "Kiyomizu-dera, Unknown"
  },
  {
    "id": "country-jp-shibuya-crossing",
    "name": "Shibuya Crossing",
    "category": "landmarks",
    "lat": 35.6595,
    "lon": 139.7005,
    "source": "static",
    "countryCode": "JP",
    "city": "Tokyo",
    "address": "Shibuya Crossing, Tokyo"
  },
  {
    "id": "country-jp-hakone-open-air-museum",
    "name": "Hakone Open-Air Museum",
    "category": "museums",
    "lat": 35.2494,
    "lon": 139.0505,
    "source": "static",
    "countryCode": "JP",
    "city": "Unknown",
    "address": "Hakone Open-Air Museum, Unknown"
  },
  {
    "id": "country-jp-nikko-toshogu-shrine",
    "name": "Nikko Toshogu Shrine",
    "category": "landmarks",
    "lat": 36.757,
    "lon": 139.598,
    "source": "static",
    "countryCode": "JP",
    "city": "Unknown",
    "address": "Nikko Toshogu Shrine, Unknown"
  },
  {
    "id": "country-jp-kenrokuen-garden-kanazawa",
    "name": "Kenrokuen Garden (Kanazawa)",
    "category": "nature",
    "lat": 36.5621,
    "lon": 136.6627,
    "source": "static",
    "countryCode": "JP",
    "city": "Unknown",
    "address": "Kenrokuen Garden (Kanazawa), Unknown"
  },
  {
    "id": "country-jp-okinawa-churaumi-aquarium",
    "name": "Okinawa Churaumi Aquarium",
    "category": "museums",
    "lat": 26.6941,
    "lon": 127.877,
    "source": "static",
    "countryCode": "JP",
    "city": "Unknown",
    "address": "Okinawa Churaumi Aquarium, Unknown"
  },
  {
    "id": "country-jp-takayama-old-town",
    "name": "Takayama Old Town",
    "category": "landmarks",
    "lat": 36.1405,
    "lon": 137.2525,
    "source": "static",
    "countryCode": "JP",
    "city": "Unknown",
    "address": "Takayama Old Town, Unknown"
  },
  {
    "id": "country-jp-naoshima-art-island",
    "name": "Naoshima Art Island",
    "category": "museums",
    "lat": 34.4585,
    "lon": 133.995,
    "source": "static",
    "countryCode": "JP",
    "city": "Unknown",
    "address": "Naoshima Art Island, Unknown"
  },
  {
    "id": "country-jp-tokyo-akihabara",
    "name": "Akihabara",
    "category": "nightlife",
    "lat": 35.6984,
    "lon": 139.773,
    "source": "static",
    "countryCode": "JP",
    "city": "Tokyo",
    "address": "JR秋葉原駅;1階"
  },
  {
    "id": "country-jp-tokyo-akihabara-electric-town",
    "name": "Akihabara Electric Town",
    "category": "other",
    "lat": 35.6932,
    "lon": 139.6559,
    "source": "static",
    "countryCode": "JP",
    "city": "Tokyo",
    "address": "Kōenji"
  },
  {
    "id": "country-jp-tokyo-asakusa-nakamise-street",
    "name": "Asakusa Nakamise Street",
    "category": "food",
    "lat": 35.7142,
    "lon": 139.7966,
    "source": "static",
    "countryCode": "JP",
    "city": "Tokyo",
    "address": "Nakamise Street"
  },
  {
    "id": "country-jp-tokyo-central-market-tokyo-2",
    "name": "Central Market (Tokyo) 2",
    "category": "food",
    "lat": 35.6778,
    "lon": 139.6509,
    "source": "static",
    "countryCode": "JP",
    "city": "Tokyo",
    "address": "Central Market (Tokyo) 2, Tokyo"
  },
  {
    "id": "country-jp-tokyo-city-park-tokyo-4",
    "name": "City Park (Tokyo) 4",
    "category": "nature",
    "lat": 35.6918,
    "lon": 139.6767,
    "source": "static",
    "countryCode": "JP",
    "city": "Tokyo",
    "address": "City Park (Tokyo) 4, Tokyo"
  },
  {
    "id": "country-jp-tokyo-ebisu-yokocho",
    "name": "Ebisu Yokocho",
    "category": "food",
    "lat": 35.6465,
    "lon": 139.7086,
    "source": "static",
    "countryCode": "JP",
    "city": "Tokyo",
    "address": "Ebisu Yokocho, Tokyo"
  },
  {
    "id": "country-jp-tokyo-ginza",
    "name": "Ginza",
    "category": "food",
    "lat": 35.6717,
    "lon": 139.765,
    "source": "static",
    "countryCode": "JP",
    "city": "Tokyo",
    "address": "Ginza, Tokyo"
  },
  {
    "id": "country-jp-tokyo-golden-gai-2",
    "name": "Golden Gai",
    "category": "nightlife",
    "lat": 35.694,
    "lon": 139.7032,
    "source": "static",
    "countryCode": "JP",
    "city": "Tokyo",
    "address": "Golden Gai, Tokyo"
  },
  {
    "id": "country-jp-tokyo-historic-cathedral-tokyo-5",
    "name": "Historic Cathedral (Tokyo) 5",
    "category": "landmarks",
    "lat": 35.6723,
    "lon": 139.681,
    "source": "static",
    "countryCode": "JP",
    "city": "Tokyo",
    "address": "Historic Cathedral (Tokyo) 5, Tokyo"
  },
  {
    "id": "country-jp-tokyo-ikebukuro-sunshine-city",
    "name": "Ikebukuro Sunshine City",
    "category": "landmarks",
    "lat": 35.7295,
    "lon": 139.7196,
    "source": "static",
    "countryCode": "JP",
    "city": "Tokyo",
    "address": "Ikebukuro Sunshine City, Tokyo"
  },
  {
    "id": "country-jp-tokyo-imperial-palace-east-gardens",
    "name": "Imperial Palace East Gardens",
    "category": "nature",
    "lat": 35.6852,
    "lon": 139.7528,
    "source": "static",
    "countryCode": "JP",
    "city": "Tokyo",
    "address": "Imperial Palace East Gardens, Tokyo"
  },
  {
    "id": "country-jp-tokyo-kagurazaka",
    "name": "Kagurazaka",
    "category": "food",
    "lat": 35.7032,
    "lon": 139.7415,
    "source": "static",
    "countryCode": "JP",
    "city": "Tokyo",
    "address": "Kagurazaka, Tokyo"
  },
  {
    "id": "country-jp-tokyo-local-food-street-tokyo-8",
    "name": "Local Food Street (Tokyo) 8",
    "category": "food",
    "lat": 35.6612,
    "lon": 139.6702,
    "source": "static",
    "countryCode": "JP",
    "city": "Tokyo",
    "address": "Local Food Street (Tokyo) 8, Tokyo"
  },
  {
    "id": "country-jp-tokyo-main-square-tokyo-9",
    "name": "Main Square (Tokyo) 9",
    "category": "landmarks",
    "lat": 35.6663,
    "lon": 139.6203,
    "source": "static",
    "countryCode": "JP",
    "city": "Tokyo",
    "address": "Main Square (Tokyo) 9, Tokyo"
  },
  {
    "id": "country-jp-tokyo-meiji-shrine",
    "name": "Meiji Shrine",
    "category": "landmarks",
    "lat": 35.6764,
    "lon": 139.6993,
    "source": "static",
    "countryCode": "JP",
    "city": "Tokyo",
    "address": "Meiji Shrine, Tokyo"
  },
  {
    "id": "country-jp-tokyo-modern-art-gallery-tokyo-6",
    "name": "Modern Art Gallery (Tokyo) 6",
    "category": "museums",
    "lat": 35.6648,
    "lon": 139.6734,
    "source": "static",
    "countryCode": "JP",
    "city": "Tokyo",
    "address": "Modern Art Gallery (Tokyo) 6, Tokyo"
  },
  {
    "id": "country-jp-tokyo-nakameguro",
    "name": "Nakameguro",
    "category": "food",
    "lat": 35.6443,
    "lon": 139.6993,
    "source": "static",
    "countryCode": "JP",
    "city": "Tokyo",
    "address": "Nakameguro, Tokyo"
  },
  {
    "id": "country-jp-tokyo-nightlife-district-tokyo-7",
    "name": "Nightlife District (Tokyo) 7",
    "category": "nightlife",
    "lat": 35.6711,
    "lon": 139.6765,
    "source": "static",
    "countryCode": "JP",
    "city": "Tokyo",
    "address": "Nightlife District (Tokyo) 7, Tokyo"
  },
  {
    "id": "country-jp-tokyo-odaiba",
    "name": "Odaiba",
    "category": "landmarks",
    "lat": 35.6654,
    "lon": 139.6453,
    "source": "static",
    "countryCode": "JP",
    "city": "Tokyo",
    "address": "Odaiba, Tokyo"
  },
  {
    "id": "country-jp-tokyo-odaiba-seaside-park",
    "name": "Odaiba Seaside Park",
    "category": "nature",
    "lat": 35.6264,
    "lon": 139.7766,
    "source": "static",
    "countryCode": "JP",
    "city": "Tokyo",
    "address": "Odaiba Seaside Park, Tokyo"
  },
  {
    "id": "country-jp-tokyo-old-town-tokyo-1",
    "name": "Old Town (Tokyo) 1",
    "category": "landmarks",
    "lat": 35.6794,
    "lon": 139.671,
    "source": "static",
    "countryCode": "JP",
    "city": "Tokyo",
    "address": "Old Town (Tokyo) 1, Tokyo"
  },
  {
    "id": "country-jp-tokyo-omotesando",
    "name": "Omotesando",
    "category": "food",
    "lat": 35.6826,
    "lon": 139.6363,
    "source": "static",
    "countryCode": "JP",
    "city": "Tokyo",
    "address": "Omotesando, Tokyo"
  },
  {
    "id": "country-jp-tokyo-riverside-promenade-tokyo-3",
    "name": "Riverside Promenade (Tokyo) 3",
    "category": "nature",
    "lat": 35.6754,
    "lon": 139.6613,
    "source": "static",
    "countryCode": "JP",
    "city": "Tokyo",
    "address": "Riverside Promenade (Tokyo) 3, Tokyo"
  },
  {
    "id": "country-jp-tokyo-roppongi-hills",
    "name": "Roppongi Hills",
    "category": "nightlife",
    "lat": 35.6605,
    "lon": 139.7294,
    "source": "static",
    "countryCode": "JP",
    "city": "Tokyo",
    "address": "Roppongi Hills, Tokyo"
  },
  {
    "id": "country-jp-tokyo-senso-ji",
    "name": "Senso-ji",
    "category": "landmarks",
    "lat": 35.7148,
    "lon": 139.7967,
    "source": "static",
    "countryCode": "JP",
    "city": "Tokyo",
    "address": "Senso-ji, Tokyo"
  },
  {
    "id": "country-jp-tokyo-shimokitazawa",
    "name": "Shimokitazawa",
    "category": "nightlife",
    "lat": 35.6613,
    "lon": 139.6686,
    "source": "static",
    "countryCode": "JP",
    "city": "Tokyo",
    "address": "Shimokitazawa, Tokyo"
  },
  {
    "id": "country-jp-tokyo-shinjuku-gyon",
    "name": "Shinjuku Gyoen",
    "category": "nature",
    "lat": 35.6852,
    "lon": 139.71,
    "source": "static",
    "countryCode": "JP",
    "city": "Tokyo",
    "address": "Shinjuku Gyoen, Tokyo"
  },
  {
    "id": "country-jp-tokyo-takeshita-street-harajuku",
    "name": "Takeshita Street (Harajuku)",
    "category": "food",
    "lat": 35.6717,
    "lon": 139.7021,
    "source": "static",
    "countryCode": "JP",
    "city": "Tokyo",
    "address": "Takeshita Street (Harajuku), Tokyo"
  },
  {
    "id": "country-jp-tokyo-teamlab-planets",
    "name": "TeamLab Planets",
    "category": "museums",
    "lat": 35.6491,
    "lon": 139.789,
    "source": "static",
    "countryCode": "JP",
    "city": "Tokyo",
    "address": "TeamLab Planets, Tokyo"
  },
  {
    "id": "country-jp-tokyo-tokyo-metropolitan-government-building",
    "name": "Tokyo Metropolitan Government Building",
    "category": "landmarks",
    "lat": 35.6635,
    "lon": 139.6452,
    "source": "static",
    "countryCode": "JP",
    "city": "Tokyo",
    "address": "Tokyo Metropolitan Government Building, Tokyo"
  },
  {
    "id": "country-jp-tokyo-tokyo-station-marunouchi",
    "name": "Tokyo Station (Marunouchi)",
    "category": "landmarks",
    "lat": 35.6734,
    "lon": 139.6328,
    "source": "static",
    "countryCode": "JP",
    "city": "Tokyo",
    "address": "Tokyo Station (Marunouchi), Tokyo"
  },
  {
    "id": "country-jp-tokyo-tokyo-tower",
    "name": "Tokyo Tower",
    "category": "landmarks",
    "lat": 35.6586,
    "lon": 139.7454,
    "source": "static",
    "countryCode": "JP",
    "city": "Tokyo",
    "address": "Tokyo Tower, Tokyo"
  },
  {
    "id": "country-jp-tokyo-toyosu-market",
    "name": "Toyosu Market",
    "category": "food",
    "lat": 35.6456,
    "lon": 139.7821,
    "source": "static",
    "countryCode": "JP",
    "city": "Tokyo",
    "address": "Toyosu Market, Tokyo"
  },
  {
    "id": "country-jp-tokyo-uno-park",
    "name": "Ueno Park",
    "category": "nature",
    "lat": 35.7153,
    "lon": 139.7741,
    "source": "static",
    "countryCode": "JP",
    "city": "Tokyo",
    "address": "Ueno Park, Tokyo"
  }
]
