[
  {
    "id": "country-pl-krakow-old-town",
    "name": "Krakow Old Town",
    "category": "landmarks",
    "lat": 50.0619,
    "lon": 19.9368,
    "source": "static",
    "countryCode": "PL",
    "city": "Krakow",
    "address": "Main Market Square"
  },
  {
    "id": "country-pl-wawel-castle",
    "name": "Wawel Castle",
    "category": "landmarks",
    "lat": 50.0545,
    "lon": 19.9352,
    "source": "static",
    "countryCode": "PL",
    "city": "Krakow",
    "address": "1 Old Town"
  },
  {
    "id": "country-pl-kazimierz-district",
    "name": "Kazimierz District",
    "category": "food",
    "lat": 50.049,
    "lon": 19.944,
    "source": "static",
    "countryCode": "PL",
    "city": "Krakow",
    "address": "1 Plac Wolnica"
  },
  {
    "id": "country-pl-auschwitz-birkenau-memorial",
    "name": "Auschwitz-Birkenau Memorial",
    "category": "museums",
    "lat": 50.0359,
    "lon": 19.1783,
    "source": "static",
    "countryCode": "PL",
    "city": "Unknown",
    "address": "Auschwitz-Birkenau Memorial, Unknown"
  },
  {
    "id": "country-pl-warsaw-old-town",
    "name": "Warsaw Old Town",
    "category": "landmarks",
    "lat": 52.2498,
    "lon": 21.0122,
    "source": "static",
    "countryCode": "PL",
    "city": "Unknown",
    "address": "Warsaw Old Town, Unknown"
  },
  {
    "id": "country-pl-palace-of-culture-and-science",
    "name": "Palace of Culture and Science",
    "category": "landmarks",
    "lat": 52.2318,
    "lon": 21.0067,
    "source": "static",
    "countryCode": "PL",
    "city": "Warsaw",
    "address": "Palace of Culture and Science, Warsaw"
  },
  {
    "id": "country-pl-lazienki-park",
    "name": "Lazienki Park",
    "category": "nature",
    "lat": 52.2147,
    "lon": 21.0339,
    "source": "static",
    "countryCode": "PL",
    "city": "Warsaw",
    "address": "Lazienki Park, Warsaw"
  },
  {
    "id": "country-pl-gdansk-main-town",
    "name": "Gdansk Main Town",
    "category": "landmarks",
    "lat": 54.352,
    "lon": 18.6466,
    "source": "static",
    "countryCode": "PL",
    "city": "Unknown",
    "address": "Gdansk Main Town, Unknown"
  },
  {
    "id": "country-pl-sopot-pier",
    "name": "Sopot Pier",
    "category": "nature",
    "lat": 54.4416,
    "lon": 18.5601,
    "source": "static",
    "countryCode": "PL",
    "city": "Unknown",
    "address": "Sopot Pier, Unknown"
  },
  {
    "id": "country-pl-wroclaw-market-square",
    "name": "Wroclaw Market Square",
    "category": "landmarks",
    "lat": 51.109,
    "lon": 17.0325,
    "source": "static",
    "countryCode": "PL",
    "city": "Unknown",
    "address": "Wroclaw Market Square, Unknown"
  },
  {
    "id": "country-pl-poznan-old-town",
    "name": "Poznan Old Town",
    "category": "landmarks",
    "lat": 52.408,
    "lon": 16.9335,
    "source": "static",
    "countryCode": "PL",
    "city": "Unknown",
    "address": "Poznan Old Town, Unknown"
  },
  {
    "id": "country-pl-zakopane-tatra-gateway",
    "name": "Zakopane Tatra Gateway",
    "category": "nature",
    "lat": 49.2992,
    "lon": 19.9496,
    "source": "static",
    "countryCode": "PL",
    "city": "Unknown",
    "address": "Zakopane Tatra Gateway, Unknown"
  },
  {
    "id": "country-pl-tatra-national-park",
    "name": "Tatra National Park",
    "category": "nature",
    "lat": 49.25,
    "lon": 19.98,
    "source": "static",
    "countryCode": "PL",
    "city": "Unknown",
    "address": "Tatra National Park, Unknown"
  },
  {
    "id": "country-pl-bialowieza-forest",
    "name": "Bialowieza Forest",
    "category": "nature",
    "lat": 52.7,
    "lon": 23.9,
    "source": "static",
    "countryCode": "PL",
    "city": "Unknown",
    "address": "Bialowieza Forest, Unknown"
  },
  {
    "id": "country-pl-malbork-castle",
    "name": "Malbork Castle",
    "category": "landmarks",
    "lat": 54.04,
    "lon": 19.03,
    "source": "static",
    "countryCode": "PL",
    "city": "Unknown",
    "address": "Malbork Castle, Unknown"
  },
  {
    "id": "country-pl-wieliczka-salt-mine",
    "name": "Wieliczka Salt Mine",
    "category": "landmarks",
    "lat": 49.983,
    "lon": 20.055,
    "source": "static",
    "countryCode": "PL",
    "city": "Unknown",
    "address": "Wieliczka Salt Mine, Unknown"
  },
  {
    "id": "country-pl-copernicus-science-centre",
    "name": "Copernicus Science Centre",
    "category": "museums",
    "lat": 52.241,
    "lon": 21.028,
    "source": "static",
    "countryCode": "PL",
    "city": "Warsaw",
    "address": "1 Plac Powstańców Warszawy"
  },
  {
    "id": "country-pl-polin-museum-of-polish-jews",
    "name": "POLIN Museum of Polish Jews",
    "category": "museums",
    "lat": 52.249,
    "lon": 20.993,
    "source": "static",
    "countryCode": "PL",
    "city": "Unknown",
    "address": "POLIN Museum of Polish Jews, Unknown"
  },
  {
    "id": "country-pl-st-marys-basilica-krakow",
    "name": "St. Mary's Basilica Krakow",
    "category": "landmarks",
    "lat": 50.0616,
    "lon": 19.939,
    "source": "static",
    "countryCode": "PL",
    "city": "Unknown",
    "address": "St. Mary's Basilica Krakow, Unknown"
  },
  {
    "id": "country-pl-hala-koszyki-food-hall",
    "name": "Hala Koszyki Food Hall",
    "category": "food",
    "lat": 52.2224,
    "lon": 21.0126,
    "source": "static",
    "countryCode": "PL",
    "city": "Unknown",
    "address": "Hala Koszyki Food Hall, Unknown"
  },
  {
    "id": "country-pl-warsaw-pawilony",
    "name": "Warsaw Pawilony",
    "category": "nightlife",
    "lat": 52.234,
    "lon": 21.012,
    "source": "static",
    "countryCode": "PL",
    "city": "Unknown",
    "address": "Warsaw Pawilony, Unknown"
  },
  {
    "id": "country-pl-krakow-club-district",
    "name": "Krakow Club District",
    "category": "nightlife",
    "lat": 50.0619,
    "lon": 19.9368,
    "source": "static",
    "countryCode": "PL",
    "city": "Unknown",
    "address": "Krakow Club District, Unknown"
  },
  {
    "id": "country-pl-gdansk-nightlife-dluga-street",
    "name": "Gdansk Nightlife (Dluga Street)",
    "category": "nightlife",
    "lat": 54.3522,
    "lon": 18.6464,
    "source": "static",
    "countryCode": "PL",
    "city": "Unknown",
    "address": "Gdansk Nightlife (Dluga Street), Unknown"
  },
  {
    "id": "country-pl-masurian-lake-district",
    "name": "Masurian Lake District",
    "category": "nature",
    "lat": 53.8,
    "lon": 21.5,
    "source": "static",
    "countryCode": "PL",
    "city": "Unknown",
    "address": "Masurian Lake District, Unknown"
  },
  {
    "id": "country-pl-slowinski-national-park-dunes",
    "name": "Slowinski National Park Dunes",
    "category": "nature",
    "lat": 54.745,
    "lon": 17.247,
    "source": "static",
    "countryCode": "PL",
    "city": "Unknown",
    "address": "Slowinski National Park Dunes, Unknown"
  },
  {
    "id": "country-pl-warsaw-chopin-museum",
    "name": "Chopin Museum",
    "category": "museums",
    "lat": 52.2368,
    "lon": 20.9958,
    "source": "static",
    "countryCode": "PL",
    "city": "Warsaw",
    "address": "23 Aleja Jana Pawła II"
  },
  {
    "id": "country-pl-warsaw-hala-koszyki",
    "name": "Hala Koszyki",
    "category": "food",
    "lat": 52.2267,
    "lon": 21.0314,
    "source": "static",
    "countryCode": "PL",
    "city": "Warsaw",
    "address": "Aleja Tadeusza Konwickiego"
  },
  {
    "id": "country-pl-warsaw-krakowskie-przedmiescie",
    "name": "Krakowskie Przedmiescie",
    "category": "landmarks",
    "lat": 52.2378,
    "lon": 21.0084,
    "source": "static",
    "countryCode": "PL",
    "city": "Warsaw",
    "address": "Krakowskie Przedmiescie, Warsaw"
  },
  {
    "id": "country-pl-warsaw-multimedia-fountain-park",
    "name": "Multimedia Fountain Park",
    "category": "nature",
    "lat": 52.2232,
    "lon": 21.0243,
    "source": "static",
    "countryCode": "PL",
    "city": "Warsaw",
    "address": "Multimedia Fountain Park, Warsaw"
  },
  {
    "id": "country-pl-warsaw-museum-of-modern-art-warsaw",
    "name": "Museum of Modern Art Warsaw",
    "category": "museums",
    "lat": 52.2444,
    "lon": 21.0061,
    "source": "static",
    "countryCode": "PL",
    "city": "Warsaw",
    "address": "Museum of Modern Art Warsaw, Warsaw"
  },
  {
    "id": "country-pl-warsaw-neon-museum",
    "name": "Neon Museum",
    "category": "museums",
    "lat": 52.2166,
    "lon": 20.996,
    "source": "static",
    "countryCode": "PL",
    "city": "Warsaw",
    "address": "Neon Museum, Warsaw"
  },
  {
    "id": "country-pl-warsaw-nowy-swiat-street",
    "name": "Nowy Swiat Street",
    "category": "food",
    "lat": 52.2358,
    "lon": 21.0356,
    "source": "static",
    "countryCode": "PL",
    "city": "Warsaw",
    "address": "Nowy Swiat Street, Warsaw"
  },
  {
    "id": "country-pl-warsaw-old-town-2",
    "name": "Old Town",
    "category": "landmarks",
    "lat": 52.2268,
    "lon": 21.0301,
    "source": "static",
    "countryCode": "PL",
    "city": "Warsaw",
    "address": "Old Town, Warsaw"
  },
  {
    "id": "country-pl-warsaw-pawilony-nowy-swiat",
    "name": "Pawilony Nowy Swiat",
    "category": "nightlife",
    "lat": 52.239,
    "lon": 21.0015,
    "source": "static",
    "countryCode": "PL",
    "city": "Warsaw",
    "address": "Pawilony Nowy Swiat, Warsaw"
  },
  {
    "id": "country-pl-warsaw-pge-narodowy",
    "name": "PGE Narodowy",
    "category": "landmarks",
    "lat": 52.2269,
    "lon": 21.0012,
    "source": "static",
    "countryCode": "PL",
    "city": "Warsaw",
    "address": "PGE Narodowy, Warsaw"
  },
  {
    "id": "country-pl-warsaw-plac-bankowy",
    "name": "Plac Bankowy",
    "category": "landmarks",
    "lat": 52.2162,
    "lon": 21.0287,
    "source": "static",
    "countryCode": "PL",
    "city": "Warsaw",
    "address": "Plac Bankowy, Warsaw"
  },
  {
    "id": "country-pl-warsaw-plac-zbawiciela",
    "name": "Plac Zbawiciela",
    "category": "nightlife",
    "lat": 52.2195,
    "lon": 20.9957,
    "source": "static",
    "countryCode": "PL",
    "city": "Warsaw",
    "address": "Plac Zbawiciela, Warsaw"
  },
  {
    "id": "country-pl-warsaw-polin-museum",
    "name": "POLIN Museum",
    "category": "museums",
    "lat": 52.229,
    "lon": 21.0214,
    "source": "static",
    "countryCode": "PL",
    "city": "Warsaw",
    "address": "POLIN Museum, Warsaw"
  },
  {
    "id": "country-pl-warsaw-powazki-cemetery",
    "name": "Powazki Cemetery",
    "category": "landmarks",
    "lat": 52.2279,
    "lon": 20.9979,
    "source": "static",
    "countryCode": "PL",
    "city": "Warsaw",
    "address": "Powazki Cemetery, Warsaw"
  },
  {
    "id": "country-pl-warsaw-praga-district",
    "name": "Praga District",
    "category": "nightlife",
    "lat": 52.2299,
    "lon": 20.9904,
    "source": "static",
    "countryCode": "PL",
    "city": "Warsaw",
    "address": "Praga District, Warsaw"
  },
  {
    "id": "country-pl-warsaw-royal-castle",
    "name": "Royal Castle",
    "category": "landmarks",
    "lat": 52.2304,
    "lon": 20.9974,
    "source": "static",
    "countryCode": "PL",
    "city": "Warsaw",
    "address": "Royal Castle, Warsaw"
  },
  {
    "id": "country-pl-warsaw-saxon-garden",
    "name": "Saxon Garden",
    "category": "nature",
    "lat": 52.2187,
    "lon": 20.9916,
    "source": "static",
    "countryCode": "PL",
    "city": "Warsaw",
    "address": "Saxon Garden, Warsaw"
  },
  {
    "id": "country-pl-warsaw-vistula-boulevards",
    "name": "Vistula Boulevards",
    "category": "nature",
    "lat": 52.2362,
    "lon": 21.0122,
    "source": "static",
    "countryCode": "PL",
    "city": "Warsaw",
    "address": "Vistula Boulevards, Warsaw"
  },
  {
    "id": "country-pl-warsaw-warsaw-barbican",
    "name": "Warsaw Barbican",
    "category": "landmarks",
    "lat": 52.2152,
    "lon": 21.0223,
    "source": "static",
    "countryCode": "PL",
    "city": "Warsaw",
    "address": "Warsaw Barbican, Warsaw"
  },
  {
    "id": "country-pl-warsaw-warsaw-river-beaches",
    "name": "Warsaw River Beaches",
    "category": "nature",
    "lat": 52.2397,
    "lon": 21.0044,
    "source": "static",
    "countryCode": "PL",
    "city": "Warsaw",
    "address": "Warsaw River Beaches, Warsaw"
  },
  {
    "id": "country-pl-warsaw-warsaw-uprising-museum",
    "name": "Warsaw Uprising Museum",
    "category": "museums",
    "lat": 52.2177,
    "lon": 21.0069,
    "source": "static",
    "countryCode": "PL",
    "city": "Warsaw",
    "address": "Warsaw Uprising Museum, Warsaw"
  },
  {
    "id": "country-pl-warsaw-wilanow-palace",
    "name": "Wilanow Palace",
    "category": "landmarks",
    "lat": 52.2179,
    "lon": 21.0218,
    "source": "static",
    "countryCode": "PL",
    "city": "Warsaw",
    "address": "Wilanow Palace, Warsaw"
  }
]
