[
  {
    "id": "country-th-grand-palace",
    "name": "Grand Palace",
    "category": "landmarks",
    "lat": 13.75,
    "lon": 100.4913,
    "source": "static",
    "countryCode": "TH",
    "city": "Bangkok",
    "address": "สนามราชกิจ"
  },
  {
    "id": "country-th-wat-pho",
    "name": "Wat Pho",
    "category": "landmarks",
    "lat": 13.7466,
    "lon": 100.493,
    "source": "static",
    "countryCode": "TH",
    "city": "Bangkok",
    "address": "Thai Wang Road"
  },
  {
    "id": "country-th-patong-beach",
    "name": "Patong Beach",
    "category": "nature",
    "lat": 7.8925,
    "lon": 98.2969,
    "source": "static",
    "countryCode": "TH",
    "city": "Patong",
    "address": "Food Alley"
  },
  {
    "id": "country-th-chiang-mai-old-city",
    "name": "Chiang Mai Old City",
    "category": "landmarks",
    "lat": 18.7883,
    "lon": 98.9853,
    "source": "static",
    "countryCode": "TH",
    "city": "Unknown",
    "address": "Chiang Mai Old City, Unknown"
  },
  {
    "id": "country-th-ayutthaya-park",
    "name": "Ayutthaya Historical Park",
    "category": "landmarks",
    "lat": 14.3556,
    "lon": 100.568,
    "source": "static",
    "countryCode": "TH",
    "city": "Unknown",
    "address": "Ayutthaya Historical Park, Unknown"
  },
  {
    "id": "country-th-railay-beach",
    "name": "Railay Beach",
    "category": "nature",
    "lat": 8.0095,
    "lon": 98.8374,
    "source": "static",
    "countryCode": "TH",
    "city": "Unknown",
    "address": "Railay Beach, Unknown"
  },
  {
    "id": "country-th-chatuchak-market",
    "name": "Chatuchak Market",
    "category": "food",
    "lat": 13.7995,
    "lon": 100.551,
    "source": "static",
    "countryCode": "TH",
    "city": "Bangkok",
    "address": "Chatuchak Market, Bangkok"
  },
  {
    "id": "country-th-damnoen-saduak",
    "name": "Damnoen Saduak Floating Market",
    "category": "food",
    "lat": 13.52,
    "lon": 99.958,
    "source": "static",
    "countryCode": "TH",
    "city": "Unknown",
    "address": "Damnoen Saduak Floating Market, Unknown"
  },
  {
    "id": "country-th-doi-suthep",
    "name": "Doi Suthep",
    "category": "nature",
    "lat": 18.8049,
    "lon": 98.922,
    "source": "static",
    "countryCode": "TH",
    "city": "Unknown",
    "address": "Doi Suthep, Unknown"
  },
  {
    "id": "country-th-khao-san-road",
    "name": "Khao San Road",
    "category": "nightlife",
    "lat": 13.7594,
    "lon": 100.497,
    "source": "static",
    "countryCode": "TH",
    "city": "Bangkok",
    "address": "Khao San Road, Bangkok"
  },
  {
    "id": "country-th-wat-arun",
    "name": "Wat Arun",
    "category": "landmarks",
    "lat": 13.7437,
    "lon": 100.4889,
    "source": "static",
    "countryCode": "TH",
    "city": "Bangkok",
    "address": "Wat Arun, Bangkok"
  },
  {
    "id": "country-th-white-temple-chiang-rai",
    "name": "White Temple (Chiang Rai)",
    "category": "landmarks",
    "lat": 19.824,
    "lon": 99.763,
    "source": "static",
    "countryCode": "TH",
    "city": "Unknown",
    "address": "White Temple (Chiang Rai), Unknown"
  },
  {
    "id": "country-th-phi-phi-islands",
    "name": "Phi Phi Islands",
    "category": "nature",
    "lat": 7.74,
    "lon": 98.778,
    "source": "static",
    "countryCode": "TH",
    "city": "Unknown",
    "address": "Phi Phi Islands, Unknown"
  },
  {
    "id": "country-th-koh-samui-fisherman-s-village",
    "name": "Koh Samui Fisherman's Village",
    "category": "food",
    "lat": 9.571,
    "lon": 100.032,
    "source": "static",
    "countryCode": "TH",
    "city": "Unknown",
    "address": "Koh Samui Fisherman's Village, Unknown"
  },
  {
    "id": "country-th-koh-tao-sairee-beach",
    "name": "Koh Tao (Sairee Beach)",
    "category": "nature",
    "lat": 10.082,
    "lon": 99.824,
    "source": "static",
    "countryCode": "TH",
    "city": "Unknown",
    "address": "Koh Tao (Sairee Beach), Unknown"
  },
  {
    "id": "country-th-koh-lanta-old-town",
    "name": "Koh Lanta Old Town",
    "category": "landmarks",
    "lat": 7.533,
    "lon": 99.083,
    "source": "static",
    "countryCode": "TH",
    "city": "Unknown",
    "address": "Koh Lanta Old Town, Unknown"
  },
  {
    "id": "country-th-khao-sok-national-park",
    "name": "Khao Sok National Park",
    "category": "nature",
    "lat": 8.914,
    "lon": 98.531,
    "source": "static",
    "countryCode": "TH",
    "city": "Unknown",
    "address": "Khao Sok National Park, Unknown"
  },
  {
    "id": "country-th-pai-walking-street",
    "name": "Pai Walking Street",
    "category": "food",
    "lat": 19.36,
    "lon": 98.439,
    "source": "static",
    "countryCode": "TH",
    "city": "Unknown",
    "address": "Pai Walking Street, Unknown"
  },
  {
    "id": "country-th-sukhothai-historical-park",
    "name": "Sukhothai Historical Park",
    "category": "landmarks",
    "lat": 17.016,
    "lon": 99.703,
    "source": "static",
    "countryCode": "TH",
    "city": "Unknown",
    "address": "Sukhothai Historical Park, Unknown"
  },
  {
    "id": "country-th-yaowarat-chinatown",
    "name": "Yaowarat Chinatown",
    "category": "food",
    "lat": 13.741,
    "lon": 100.509,
    "source": "static",
    "countryCode": "TH",
    "city": "Bangkok",
    "address": "Yaowarat Chinatown, Bangkok"
  },
  {
    "id": "country-th-jodd-fairs-night-market",
    "name": "Jodd Fairs Night Market",
    "category": "food",
    "lat": 13.758,
    "lon": 100.566,
    "source": "static",
    "countryCode": "TH",
    "city": "Bangkok",
    "address": "Jodd Fairs Night Market, Bangkok"
  },
  {
    "id": "country-th-bangla-road-patong-nightlife",
    "name": "Bangla Road (Patong Nightlife)",
    "category": "nightlife",
    "lat": 7.894,
    "lon": 98.295,
    "source": "static",
    "countryCode": "TH",
    "city": "Unknown",
    "address": "Bangla Road (Patong Nightlife), Unknown"
  },
  {
    "id": "country-th-full-moon-party-beach-haad-rin",
    "name": "Full Moon Party Beach (Haad Rin)",
    "category": "nightlife",
    "lat": 9.676,
    "lon": 100.067,
    "source": "static",
    "countryCode": "TH",
    "city": "Unknown",
    "address": "Full Moon Party Beach (Haad Rin), Unknown"
  },
  {
    "id": "country-th-erawan-falls",
    "name": "Erawan Falls",
    "category": "nature",
    "lat": 14.368,
    "lon": 99.152,
    "source": "static",
    "countryCode": "TH",
    "city": "Unknown",
    "address": "Erawan Falls, Unknown"
  },
  {
    "id": "country-th-similan-islands",
    "name": "Similan Islands",
    "category": "nature",
    "lat": 8.649,
    "lon": 97.64,
    "source": "static",
    "countryCode": "TH",
    "city": "Unknown",
    "address": "Similan Islands, Unknown"
  },
  {
    "id": "country-th-bangkok-asiatiqu-riverfront",
    "name": "Asiatique Riverfront",
    "category": "nightlife",
    "lat": 13.7049,
    "lon": 100.5046,
    "source": "static",
    "countryCode": "TH",
    "city": "Bangkok",
    "address": "Charoen Krung Road"
  },
  {
    "id": "country-th-bangkok-asiatiqu-the-riverfront",
    "name": "Asiatique The Riverfront",
    "category": "nightlife",
    "lat": 13.77,
    "lon": 100.5039,
    "source": "static",
    "countryCode": "TH",
    "city": "Bangkok",
    "address": "Sam Sen Road"
  },
  {
    "id": "country-th-bangkok-bangkok-art-and-culture-centre",
    "name": "Bangkok Art and Culture Centre",
    "category": "museums",
    "lat": 13.7464,
    "lon": 100.5309,
    "source": "static",
    "countryCode": "TH",
    "city": "Bangkok",
    "address": "Pathum Wan Intersection Skywalk"
  },
  {
    "id": "country-th-bangkok-benjakitti-park",
    "name": "Benjakitti Park",
    "category": "nature",
    "lat": 13.7274,
    "lon": 100.559,
    "source": "static",
    "countryCode": "TH",
    "city": "Bangkok",
    "address": "Benjakitti Park, Bangkok"
  },
  {
    "id": "country-th-bangkok-central-market-bangkok-2",
    "name": "Central Market (Bangkok) 2",
    "category": "food",
    "lat": 13.7807,
    "lon": 100.4816,
    "source": "static",
    "countryCode": "TH",
    "city": "Bangkok",
    "address": "Central Market (Bangkok) 2, Bangkok"
  },
  {
    "id": "country-th-bangkok-chao-phraya-riverside-promenade",
    "name": "Chao Phraya Riverside Promenade",
    "category": "nature",
    "lat": 13.7699,
    "lon": 100.5073,
    "source": "static",
    "countryCode": "TH",
    "city": "Bangkok",
    "address": "Chao Phraya Riverside Promenade, Bangkok"
  },
  {
    "id": "country-th-bangkok-chao-phraya-riverside-walk",
    "name": "Chao Phraya Riverside Walk",
    "category": "landmarks",
    "lat": 13.745,
    "lon": 100.49,
    "source": "static",
    "countryCode": "TH",
    "city": "Bangkok",
    "address": "Chao Phraya Riverside Walk, Bangkok"
  },
  {
    "id": "country-th-bangkok-city-park-bangkok-4",
    "name": "City Park (Bangkok) 4",
    "category": "nature",
    "lat": 13.7372,
    "lon": 100.4989,
    "source": "static",
    "countryCode": "TH",
    "city": "Bangkok",
    "address": "City Park (Bangkok) 4, Bangkok"
  },
  {
    "id": "country-th-bangkok-ekkamai",
    "name": "Ekkamai",
    "category": "nightlife",
    "lat": 13.7192,
    "lon": 100.5851,
    "source": "static",
    "countryCode": "TH",
    "city": "Bangkok",
    "address": "Ekkamai, Bangkok"
  },
  {
    "id": "country-th-bangkok-erawan-shrine",
    "name": "Erawan Shrine",
    "category": "landmarks",
    "lat": 13.744,
    "lon": 100.5405,
    "source": "static",
    "countryCode": "TH",
    "city": "Bangkok",
    "address": "Erawan Shrine, Bangkok"
  },
  {
    "id": "country-th-bangkok-historic-cathedral-bangkok-5",
    "name": "Historic Cathedral (Bangkok) 5",
    "category": "landmarks",
    "lat": 13.7485,
    "lon": 100.4885,
    "source": "static",
    "countryCode": "TH",
    "city": "Bangkok",
    "address": "Historic Cathedral (Bangkok) 5, Bangkok"
  },
  {
    "id": "country-th-bangkok-iconsiam",
    "name": "Iconsiam",
    "category": "food",
    "lat": 13.7262,
    "lon": 100.5106,
    "source": "static",
    "countryCode": "TH",
    "city": "Bangkok",
    "address": "Iconsiam, Bangkok"
  },
  {
    "id": "country-th-bangkok-jim-thompson-house",
    "name": "Jim Thompson House",
    "category": "museums",
    "lat": 13.7494,
    "lon": 100.5283,
    "source": "static",
    "countryCode": "TH",
    "city": "Bangkok",
    "address": "Jim Thompson House, Bangkok"
  },
  {
    "id": "country-th-bangkok-lumphini-park",
    "name": "Lumphini Park",
    "category": "nature",
    "lat": 13.7304,
    "lon": 100.541,
    "source": "static",
    "countryCode": "TH",
    "city": "Bangkok",
    "address": "Lumphini Park, Bangkok"
  },
  {
    "id": "country-th-bangkok-lumpini-park",
    "name": "Lumpini Park",
    "category": "nature",
    "lat": 13.7648,
    "lon": 100.5108,
    "source": "static",
    "countryCode": "TH",
    "city": "Bangkok",
    "address": "Lumpini Park, Bangkok"
  },
  {
    "id": "country-th-bangkok-mbk-center",
    "name": "MBK Center",
    "category": "food",
    "lat": 13.746,
    "lon": 100.5292,
    "source": "static",
    "countryCode": "TH",
    "city": "Bangkok",
    "address": "MBK Center, Bangkok"
  },
  {
    "id": "country-th-bangkok-modern-art-gallery-bangkok-6",
    "name": "Modern Art Gallery (Bangkok) 6",
    "category": "museums",
    "lat": 13.7423,
    "lon": 100.519,
    "source": "static",
    "countryCode": "TH",
    "city": "Bangkok",
    "address": "Modern Art Gallery (Bangkok) 6, Bangkok"
  },
  {
    "id": "country-th-bangkok-nightlife-district-bangkok-7",
    "name": "Nightlife District (Bangkok) 7",
    "category": "nightlife",
    "lat": 13.75,
    "lon": 100.4764,
    "source": "static",
    "countryCode": "TH",
    "city": "Bangkok",
    "address": "Nightlife District (Bangkok) 7, Bangkok"
  },
  {
    "id": "country-th-bangkok-old-town-bangkok-1",
    "name": "Old Town (Bangkok) 1",
    "category": "landmarks",
    "lat": 13.7343,
    "lon": 100.5035,
    "source": "static",
    "countryCode": "TH",
    "city": "Bangkok",
    "address": "Old Town (Bangkok) 1, Bangkok"
  },
  {
    "id": "country-th-bangkok-pak-khlong-talat-flower-market",
    "name": "Pak Khlong Talat Flower Market",
    "category": "food",
    "lat": 13.743,
    "lon": 100.4986,
    "source": "static",
    "countryCode": "TH",
    "city": "Bangkok",
    "address": "Pak Khlong Talat Flower Market, Bangkok"
  },
  {
    "id": "country-th-bangkok-riverside-promenade-bangkok-3",
    "name": "Riverside Promenade (Bangkok) 3",
    "category": "nature",
    "lat": 13.7799,
    "lon": 100.4994,
    "source": "static",
    "countryCode": "TH",
    "city": "Bangkok",
    "address": "Riverside Promenade (Bangkok) 3, Bangkok"
  },
  {
    "id": "country-th-bangkok-siam-paragon",
    "name": "Siam Paragon",
    "category": "food",
    "lat": 13.7463,
    "lon": 100.5347,
    "source": "static",
    "countryCode": "TH",
    "city": "Bangkok",
    "address": "Siam Paragon, Bangkok"
  },
  {
    "id": "country-th-bangkok-silom-patpong",
    "name": "Silom / Patpong",
    "category": "nightlife",
    "lat": 13.7276,
    "lon": 100.5311,
    "source": "static",
    "countryCode": "TH",
    "city": "Bangkok",
    "address": "Silom / Patpong, Bangkok"
  },
  {
    "id": "country-th-bangkok-sukhumvit-soi-11",
    "name": "Sukhumvit Soi 11",
    "category": "nightlife",
    "lat": 13.7442,
    "lon": 100.5566,
    "source": "static",
    "countryCode": "TH",
    "city": "Bangkok",
    "address": "Sukhumvit Soi 11, Bangkok"
  },
  {
    "id": "country-th-bangkok-talad-rot-fai-night-market",
    "name": "Talad Rot Fai Night Market",
    "category": "nightlife",
    "lat": 13.7709,
    "lon": 100.4946,
    "source": "static",
    "countryCode": "TH",
    "city": "Bangkok",
    "address": "Talad Rot Fai Night Market, Bangkok"
  },
  {
    "id": "country-th-bangkok-terminal-21",
    "name": "Terminal 21",
    "category": "food",
    "lat": 13.7377,
    "lon": 100.56,
    "source": "static",
    "countryCode": "TH",
    "city": "Bangkok",
    "address": "Terminal 21, Bangkok"
  },
  {
    "id": "country-th-bangkok-terminal-21-asok",
    "name": "Terminal 21 Asok",
    "category": "other",
    "lat": 13.7449,
    "lon": 100.5122,
    "source": "static",
    "countryCode": "TH",
    "city": "Bangkok",
    "address": "Terminal 21 Asok, Bangkok"
  },
  {
    "id": "country-th-bangkok-thonglor",
    "name": "Thonglor",
    "category": "nightlife",
    "lat": 13.7308,
    "lon": 100.5696,
    "source": "static",
    "countryCode": "TH",
    "city": "Bangkok",
    "address": "Thonglor, Bangkok"
  },
  {
    "id": "country-th-bangkok-wat-saket-golden-mount",
    "name": "Wat Saket (Golden Mount)",
    "category": "landmarks",
    "lat": 13.7536,
    "lon": 100.5064,
    "source": "static",
    "countryCode": "TH",
    "city": "Bangkok",
    "address": "Wat Saket (Golden Mount), Bangkok"
  },
  {
    "id": "country-th-bangkok-wat-traimit-golden-buddha",
    "name": "Wat Traimit (Golden Buddha)",
    "category": "museums",
    "lat": 13.7384,
    "lon": 100.5132,
    "source": "static",
    "countryCode": "TH",
    "city": "Bangkok",
    "address": "Wat Traimit (Golden Buddha), Bangkok"
  }
]
