[
  {
    "id": "country-za-table-mountain",
    "name": "Table Mountain",
    "category": "nature",
    "lat": -33.9628,
    "lon": 18.4098,
    "source": "static",
    "countryCode": "ZA",
    "city": "Cape Town",
    "address": "Platteklip Gorge"
  },
  {
    "id": "country-za-v-a-waterfront-cape-town",
    "name": "V&A Waterfront Cape Town",
    "category": "landmarks",
    "lat": -33.9036,
    "lon": 18.4208,
    "source": "static",
    "countryCode": "ZA",
    "city": "Cape Town",
    "address": "139 Breakwater Lane"
  },
  {
    "id": "country-za-cape-point",
    "name": "Cape Point",
    "category": "nature",
    "lat": -34.3568,
    "lon": 18.4983,
    "source": "static",
    "countryCode": "ZA",
    "city": "City of Cape Town",
    "address": "Lighthouse Keeper's Trail"
  },
  {
    "id": "country-za-boulders-beach-penguins",
    "name": "Boulders Beach Penguins",
    "category": "nature",
    "lat": -34.196,
    "lon": 18.451,
    "source": "static",
    "countryCode": "ZA",
    "city": "Unknown",
    "address": "Boulders Beach Penguins, Unknown"
  },
  {
    "id": "country-za-robben-island",
    "name": "Robben Island",
    "category": "museums",
    "lat": -33.8066,
    "lon": 18.3662,
    "source": "static",
    "countryCode": "ZA",
    "city": "Unknown",
    "address": "Robben Island, Unknown"
  },
  {
    "id": "country-za-kruger-national-park",
    "name": "Kruger National Park",
    "category": "nature",
    "lat": -23.9884,
    "lon": 31.5547,
    "source": "static",
    "countryCode": "ZA",
    "city": "Unknown",
    "address": "Kruger National Park, Unknown"
  },
  {
    "id": "country-za-blyde-river-canyon",
    "name": "Blyde River Canyon",
    "category": "nature",
    "lat": -24.577,
    "lon": 30.807,
    "source": "static",
    "countryCode": "ZA",
    "city": "Unknown",
    "address": "Blyde River Canyon, Unknown"
  },
  {
    "id": "country-za-garden-route-knysna",
    "name": "Garden Route Knysna",
    "category": "nature",
    "lat": -34.0363,
    "lon": 23.0471,
    "source": "static",
    "countryCode": "ZA",
    "city": "Unknown",
    "address": "Garden Route Knysna, Unknown"
  },
  {
    "id": "country-za-tsitsikamma-national-park",
    "name": "Tsitsikamma National Park",
    "category": "nature",
    "lat": -34,
    "lon": 23.9,
    "source": "static",
    "countryCode": "ZA",
    "city": "Unknown",
    "address": "Tsitsikamma National Park, Unknown"
  },
  {
    "id": "country-za-johannesburg-apartheid-museum",
    "name": "Johannesburg Apartheid Museum",
    "category": "museums",
    "lat": -26.2389,
    "lon": 27.9945,
    "source": "static",
    "countryCode": "ZA",
    "city": "Unknown",
    "address": "Johannesburg Apartheid Museum, Unknown"
  },
  {
    "id": "country-za-constitution-hill",
    "name": "Constitution Hill",
    "category": "museums",
    "lat": -26.194,
    "lon": 28.041,
    "source": "static",
    "countryCode": "ZA",
    "city": "Unknown",
    "address": "Constitution Hill, Unknown"
  },
  {
    "id": "country-za-durban-golden-mile",
    "name": "Durban Golden Mile",
    "category": "nature",
    "lat": -29.856,
    "lon": 31.032,
    "source": "static",
    "countryCode": "ZA",
    "city": "Unknown",
    "address": "Durban Golden Mile, Unknown"
  },
  {
    "id": "country-za-drakensberg-amphitheatre-viewpoints",
    "name": "Drakensberg Amphitheatre Viewpoints",
    "category": "nature",
    "lat": -28.73,
    "lon": 28.89,
    "source": "static",
    "countryCode": "ZA",
    "city": "Unknown",
    "address": "Drakensberg Amphitheatre Viewpoints, Unknown"
  },
  {
    "id": "country-za-stellenbosch-wine-lands",
    "name": "Stellenbosch Wine Lands",
    "category": "food",
    "lat": -33.9346,
    "lon": 18.861,
    "source": "static",
    "countryCode": "ZA",
    "city": "Unknown",
    "address": "Stellenbosch Wine Lands, Unknown"
  },
  {
    "id": "country-za-franschhoek-wine-tram-area",
    "name": "Franschhoek Wine Tram Area",
    "category": "food",
    "lat": -33.914,
    "lon": 19.12,
    "source": "static",
    "countryCode": "ZA",
    "city": "Unknown",
    "address": "Franschhoek Wine Tram Area, Unknown"
  },
  {
    "id": "country-za-cape-town-old-biscuit-mill-market",
    "name": "Cape Town Old Biscuit Mill Market",
    "category": "food",
    "lat": -33.927,
    "lon": 18.449,
    "source": "static",
    "countryCode": "ZA",
    "city": "Unknown",
    "address": "Cape Town Old Biscuit Mill Market, Unknown"
  },
  {
    "id": "country-za-long-street-cape-town",
    "name": "Long Street Cape Town",
    "category": "nightlife",
    "lat": -33.924,
    "lon": 18.417,
    "source": "static",
    "countryCode": "ZA",
    "city": "Unknown",
    "address": "Long Street Cape Town, Unknown"
  },
  {
    "id": "country-za-kloof-street-bars",
    "name": "Kloof Street Bars",
    "category": "nightlife",
    "lat": -33.928,
    "lon": 18.41,
    "source": "static",
    "countryCode": "ZA",
    "city": "Unknown",
    "address": "Kloof Street Bars, Unknown"
  },
  {
    "id": "country-za-maboneng-precinct",
    "name": "Maboneng Precinct",
    "category": "nightlife",
    "lat": -26.204,
    "lon": 28.057,
    "source": "static",
    "countryCode": "ZA",
    "city": "Unknown",
    "address": "Maboneng Precinct, Unknown"
  },
  {
    "id": "country-za-soweto-vilakazi-street",
    "name": "Soweto Vilakazi Street",
    "category": "landmarks",
    "lat": -26.238,
    "lon": 27.907,
    "source": "static",
    "countryCode": "ZA",
    "city": "Unknown",
    "address": "Soweto Vilakazi Street, Unknown"
  },
  {
    "id": "country-za-blyde-river-three-rondavels",
    "name": "Blyde River Three Rondavels",
    "category": "nature",
    "lat": -24.57,
    "lon": 30.788,
    "source": "static",
    "countryCode": "ZA",
    "city": "Unknown",
    "address": "Blyde River Three Rondavels, Unknown"
  },
  {
    "id": "country-za-hermanus-whale-watching",
    "name": "Hermanus Whale Watching",
    "category": "nature",
    "lat": -34.418,
    "lon": 19.241,
    "source": "static",
    "countryCode": "ZA",
    "city": "Unknown",
    "address": "Hermanus Whale Watching, Unknown"
  },
  {
    "id": "country-za-addo-elephant-national-park",
    "name": "Addo Elephant National Park",
    "category": "nature",
    "lat": -33.549,
    "lon": 25.744,
    "source": "static",
    "countryCode": "ZA",
    "city": "Unknown",
    "address": "Addo Elephant National Park, Unknown"
  },
  {
    "id": "country-za-cape-winelands-scenic-drive",
    "name": "Cape Winelands Scenic Drive",
    "category": "other",
    "lat": -33.9,
    "lon": 19,
    "source": "static",
    "countryCode": "ZA",
    "city": "Unknown",
    "address": "Cape Winelands Scenic Drive, Unknown"
  },
  {
    "id": "country-za-durban-moses-mabhida-stadium",
    "name": "Durban Moses Mabhida Stadium",
    "category": "landmarks",
    "lat": -29.823,
    "lon": 31.03,
    "source": "static",
    "countryCode": "ZA",
    "city": "Unknown",
    "address": "Durban Moses Mabhida Stadium, Unknown"
  },
  {
    "id": "country-za-cape-town-bo-kaap",
    "name": "Bo-Kaap",
    "category": "landmarks",
    "lat": -33.9189,
    "lon": 18.4092,
    "source": "static",
    "countryCode": "ZA",
    "city": "Cape Town",
    "address": "Military Road"
  },
  {
    "id": "country-za-cape-town-bree-street",
    "name": "Bree Street",
    "category": "food",
    "lat": -33.9277,
    "lon": 18.4135,
    "source": "static",
    "countryCode": "ZA",
    "city": "Cape Town",
    "address": "Kloof Street"
  },
  {
    "id": "country-za-cape-town-camps-bay-beach",
    "name": "Camps Bay Beach",
    "category": "nature",
    "lat": -33.9179,
    "lon": 18.4278,
    "source": "static",
    "countryCode": "ZA",
    "city": "Cape Town",
    "address": "1 Heerengracht Boulevard"
  },
  {
    "id": "country-za-cape-town-cape-town-stadium",
    "name": "Cape Town Stadium",
    "category": "landmarks",
    "lat": -33.9347,
    "lon": 18.4399,
    "source": "static",
    "countryCode": "ZA",
    "city": "Cape Town",
    "address": "Cape Town Stadium, Cape Town"
  },
  {
    "id": "country-za-cape-town-chapman-s-peak-drive",
    "name": "Chapman's Peak Drive",
    "category": "nature",
    "lat": -33.916,
    "lon": 18.4328,
    "source": "static",
    "countryCode": "ZA",
    "city": "Cape Town",
    "address": "Chapman's Peak Drive, Cape Town"
  },
  {
    "id": "country-za-cape-town-clifton-beaches",
    "name": "Clifton Beaches",
    "category": "nature",
    "lat": -33.908,
    "lon": 18.4168,
    "source": "static",
    "countryCode": "ZA",
    "city": "Cape Town",
    "address": "Clifton Beaches, Cape Town"
  },
  {
    "id": "country-za-cape-town-company-s-garden",
    "name": "Company's Garden",
    "category": "nature",
    "lat": -33.9377,
    "lon": 18.4092,
    "source": "static",
    "countryCode": "ZA",
    "city": "Cape Town",
    "address": "Company's Garden, Cape Town"
  },
  {
    "id": "country-za-cape-town-district-six-museum",
    "name": "District Six Museum",
    "category": "museums",
    "lat": -33.9394,
    "lon": 18.4236,
    "source": "static",
    "countryCode": "ZA",
    "city": "Cape Town",
    "address": "District Six Museum, Cape Town"
  },
  {
    "id": "country-za-cape-town-first-thursdays-art-walk",
    "name": "First Thursdays Art Walk",
    "category": "nightlife",
    "lat": -33.9224,
    "lon": 18.4433,
    "source": "static",
    "countryCode": "ZA",
    "city": "Cape Town",
    "address": "First Thursdays Art Walk, Cape Town"
  },
  {
    "id": "country-za-cape-town-greenmarket-square",
    "name": "Greenmarket Square",
    "category": "food",
    "lat": -33.919,
    "lon": 18.4342,
    "source": "static",
    "countryCode": "ZA",
    "city": "Cape Town",
    "address": "Greenmarket Square, Cape Town"
  },
  {
    "id": "country-za-cape-town-hout-bay",
    "name": "Hout Bay",
    "category": "nature",
    "lat": -33.9263,
    "lon": 18.44,
    "source": "static",
    "countryCode": "ZA",
    "city": "Cape Town",
    "address": "Hout Bay, Cape Town"
  },
  {
    "id": "country-za-cape-town-kirstenbosch-gardens",
    "name": "Kirstenbosch Gardens",
    "category": "nature",
    "lat": -33.9356,
    "lon": 18.415,
    "source": "static",
    "countryCode": "ZA",
    "city": "Cape Town",
    "address": "Kirstenbosch Gardens, Cape Town"
  },
  {
    "id": "country-za-cape-town-kloof-street",
    "name": "Kloof Street",
    "category": "food",
    "lat": -33.9218,
    "lon": 18.4047,
    "source": "static",
    "countryCode": "ZA",
    "city": "Cape Town",
    "address": "Kloof Street, Cape Town"
  },
  {
    "id": "country-za-cape-town-lion-s-head",
    "name": "Lion's Head",
    "category": "nature",
    "lat": -33.9135,
    "lon": 18.439,
    "source": "static",
    "countryCode": "ZA",
    "city": "Cape Town",
    "address": "Lion's Head, Cape Town"
  },
  {
    "id": "country-za-cape-town-long-street",
    "name": "Long Street",
    "category": "nightlife",
    "lat": -33.9231,
    "lon": 18.4402,
    "source": "static",
    "countryCode": "ZA",
    "city": "Cape Town",
    "address": "Long Street, Cape Town"
  },
  {
    "id": "country-za-cape-town-oranjezicht-city-farm-market",
    "name": "Oranjezicht City Farm Market",
    "category": "food",
    "lat": -33.9235,
    "lon": 18.4207,
    "source": "static",
    "countryCode": "ZA",
    "city": "Cape Town",
    "address": "Oranjezicht City Farm Market, Cape Town"
  },
  {
    "id": "country-za-cape-town-robben-island-ferry",
    "name": "Robben Island Ferry",
    "category": "museums",
    "lat": -33.9213,
    "lon": 18.4167,
    "source": "static",
    "countryCode": "ZA",
    "city": "Cape Town",
    "address": "Robben Island Ferry, Cape Town"
  },
  {
    "id": "country-za-cape-town-signal-hill",
    "name": "Signal Hill",
    "category": "nature",
    "lat": -33.9418,
    "lon": 18.4226,
    "source": "static",
    "countryCode": "ZA",
    "city": "Cape Town",
    "address": "Signal Hill, Cape Town"
  },
  {
    "id": "country-za-cape-town-the-old-biscuit-mill",
    "name": "The Old Biscuit Mill",
    "category": "food",
    "lat": -33.9348,
    "lon": 18.4075,
    "source": "static",
    "countryCode": "ZA",
    "city": "Cape Town",
    "address": "The Old Biscuit Mill, Cape Town"
  },
  {
    "id": "country-za-cape-town-two-oceans-aquarium",
    "name": "Two Oceans Aquarium",
    "category": "museums",
    "lat": -33.9306,
    "lon": 18.4139,
    "source": "static",
    "countryCode": "ZA",
    "city": "Cape Town",
    "address": "Two Oceans Aquarium, Cape Town"
  },
  {
    "id": "country-za-cape-town-v-a-waterfront",
    "name": "V&A Waterfront",
    "category": "food",
    "lat": -33.9157,
    "lon": 18.4082,
    "source": "static",
    "countryCode": "ZA",
    "city": "Cape Town",
    "address": "V&A Waterfront, Cape Town"
  },
  {
    "id": "country-za-cape-town-woodstock",
    "name": "Woodstock",
    "category": "food",
    "lat": -33.9105,
    "lon": 18.4107,
    "source": "static",
    "countryCode": "ZA",
    "city": "Cape Town",
    "address": "Woodstock, Cape Town"
  },
  {
    "id": "country-za-cape-town-zeitz-mocaa",
    "name": "Zeitz MOCAA",
    "category": "museums",
    "lat": -33.9154,
    "lon": 18.4438,
    "source": "static",
    "countryCode": "ZA",
    "city": "Cape Town",
    "address": "Zeitz MOCAA, Cape Town"
  }
]
